,City,Lat,Lng,Max Temp,Humidity,Cloudiness,Wind Speed,Country,Date
0,buraydah,26.33,43.98,102.19999999999999,15,62,13.869005010737295,SA,1593006537
1,punta arenas,-53.15,-70.92,35.599999999999966,87,90,23.040443808160347,CL,1593006537
2,port alfred,-33.59,26.89,84.00200000000001,30,0,1.0066213314244812,ZA,1593006537
3,ust-kulom,61.69,53.69,49.42399999999998,57,97,9.663564781675019,RU,1593006537
4,atuona,-9.8,-139.03,78.90799999999996,73,28,14.89799570508232,PF,1593006538
5,tasiilaq,65.61,-37.64,42.799999999999955,81,75,12.750536864710094,GL,1593006538
6,ushuaia,-54.8,-68.3,35.599999999999966,80,90,4.6975662133142455,AR,1593006538
7,puerto colombia,10.99,-74.95,84.19999999999999,74,40,8.05297065139585,CO,1593006460
8,tezu,27.92,96.17,77.01800000000009,79,100,3.6462061560486756,IN,1593006538
9,xunchang,28.45,104.72,75.79400000000004,74,0,1.4316392269148175,CN,1593006538
10,kavieng,-2.57,150.8,83.47999999999996,76,20,14.584824624194702,PG,1593006538
11,jamestown,42.1,-79.24,66.00200000000001,72,40,12.750536864710094,US,1593006356
12,kavaratti,10.57,72.64,83.58800000000002,76,100,16.4638511095204,IN,1593006538
13,victoria,22.29,114.16,87.00799999999998,78,100,5.010737294201862,HK,1593006305
14,busselton,-33.65,115.33,53.00600000000003,66,100,5.9502505368647105,AU,1593006538
15,siilinjarvi,63.08,27.67,82.39999999999992,37,32,10.28990694345025,FI,1593006538
16,castro,-24.79,-50.01,68.594,53,0,11.609699355762348,BR,1593006427
17,san patricio,19.22,-104.7,73.39999999999992,94,75,9.171438797423049,MX,1593006538
18,avarua,-21.21,-159.78,75.19999999999999,83,51,4.6975662133142455,CK,1593006538
19,kindu,-2.95,25.95,94.74799999999999,28,0,3.981746599856836,CD,1593006538
20,saint-philippe,-21.36,55.77,73.39999999999992,73,75,21.921975662133143,RE,1593006539
21,carnarvon,-24.87,113.63,57.19999999999999,76,0,6.9345025053686475,AU,1593006345
22,rikitea,-23.12,-134.97,69.87200000000001,53,100,7.426628489620615,PF,1593006367
24,bredasdorp,-34.53,20.04,66.19999999999999,72,0,5.569971367215462,ZA,1593006539
25,gorom-gorom,14.44,-0.24,104.98999999999995,16,0,3.310665712240515,BF,1593006539
26,broome,42.25,-75.83,69.99799999999999,68,20,13.869005010737295,US,1593006539
27,airai,-8.93,125.41,57.32600000000008,100,44,2.505368647100931,TL,1593006539
28,jalu,29.03,21.55,97.10599999999994,16,0,15.188797423049392,LY,1593006539
29,jabinyanah,35.03,10.91,85.99999999999994,37,0,10.28990694345025,TN,1593006539
30,ternate,0.8,127.4,81.24799999999999,79,99,5.234430923407301,ID,1593006478
31,mehamn,71.04,27.85,49.99999999999994,87,75,18.342877594846097,NO,1593006539
32,upernavik,72.79,-56.15,33.386000000000024,93,100,1.5658554044380815,GL,1593006539
33,havre-saint-pierre,50.23,-63.6,71.59999999999997,73,1,5.8160343593414465,CA,1593006539
34,lagoa,39.05,-27.98,63.31999999999999,67,100,10.155690765926987,PT,1593006540
35,khatanga,71.97,102.5,69.63799999999998,66,14,16.4638511095204,RU,1593006540
36,kaeo,-35.1,173.78,53.00600000000003,3,77,3.4672512526843238,NZ,1593006540
37,rahuri,19.38,74.65,88.33999999999997,52,83,6.06209735146743,IN,1593006540
38,mataura,-46.19,168.86,44.67199999999997,89,93,4.160701503221189,NZ,1593006540
39,hermanus,-34.42,19.23,67.99999999999994,66,0,2.9974946313528994,ZA,1593006540
40,vaini,-21.2,-175.2,69.80000000000001,94,20,3.3554044380816035,TO,1593006540
41,hobart,-42.88,147.33,53.99600000000004,100,75,5.8160343593414465,AU,1593006456
42,bubaque,11.28,-15.83,82.65199999999999,77,51,5.771295633500358,GW,1593006540
43,barrow,71.29,-156.79,31.999999999999943,94,90,4.6975662133142455,US,1593006540
44,butaritari,3.07,172.79,83.13799999999998,73,12,12.526843235504652,KI,1593006540
45,dikson,73.51,80.55,42.52999999999997,74,47,9.395132426628491,RU,1593006540
46,umm bab,25.21,50.81,105.80000000000001,15,1,8.05297065139585,QA,1593006541
48,los llanos de aridane,28.66,-17.92,76.99999999999994,61,20,20.80350751610594,ES,1593006541
49,maniitsoq,65.42,-52.9,39.77600000000007,84,80,2.706692913385827,GL,1593006541
50,hasaki,35.73,140.83,64.99400000000009,93,75,6.9345025053686475,JP,1593006541
51,lichinga,-13.31,35.24,68.63000000000005,60,52,3.937007874015748,MZ,1593006541
52,tiksi,71.69,128.87,59.863999999999976,59,17,4.071224051539012,RU,1593006541
53,thompson,55.74,-97.86,66.19999999999999,59,20,5.8160343593414465,CA,1593006477
54,salalah,17.02,54.09,85.99999999999994,84,75,14.987473156764496,OM,1593006541
55,aklavik,68.22,-135.01,42.799999999999955,87,90,5.8160343593414465,CA,1593006541
56,kapaa,22.08,-159.32,76.99999999999994,78,90,12.750536864710094,US,1593006541
57,cidreira,-30.18,-50.21,73.04000000000002,62,44,4.787043664996421,BR,1593006542
59,provideniya,64.38,-173.3,38.10200000000003,74,78,2.0803507516105944,RU,1593006542
60,saldanha,-33.01,17.94,73.39999999999992,28,0,9.171438797423049,ZA,1593006315
61,mahebourg,-20.41,57.7,75.19999999999999,69,40,11.40837508947745,MU,1593006542
62,qaanaaq,77.48,-69.36,41.66599999999994,67,0,2.885647816750179,GL,1593006542
63,kodiak,57.79,-152.41,46.39999999999998,87,90,4.6975662133142455,US,1593006480
64,hilo,19.73,-155.09,71.59999999999997,68,90,2.6395848246241944,US,1593006368
65,luderitz,-26.65,15.16,72.98600000000005,26,0,8.992483894058696,NA,1593006542
66,beringovskiy,63.05,179.32,41.19799999999998,88,96,3.981746599856836,RU,1593006542
67,hami,42.8,93.45,87.7100000000001,11,71,3.825161059413028,CN,1593006542
68,cape town,-33.93,18.42,66.19999999999999,55,0,14.987473156764496,ZA,1593006062
70,banting,2.82,101.5,80.59999999999997,83,20,9.171438797423049,MY,1593006542
73,waingapu,-9.66,120.26,75.25399999999996,82,86,10.983357193987116,ID,1593006542
75,plettenberg bay,-34.05,23.37,79.03399999999993,23,0,7.739799570508232,ZA,1593006543
77,clyde river,70.47,-68.59,42.799999999999955,81,90,3.3554044380816035,CA,1593006543
78,zheleznodorozhnyy,55.75,38,78.99799999999999,24,0,15.658554044380816,RU,1593006543
79,bluff,-46.6,168.33,46.86800000000005,87,78,16.1059413027917,NZ,1593006543
80,sembakung,3.82,117.25,75.56,93,100,1.3869005010737294,ID,1593006543
82,pangnirtung,66.15,-65.71,37.39999999999998,100,90,12.750536864710094,CA,1593006543
83,warrington,53.39,-2.58,85.99999999999994,48,20,3.3554044380816035,GB,1593006543
84,ancud,-41.87,-73.82,35.00599999999997,90,90,2.2369362920544025,CL,1593006543
85,guerrero negro,27.98,-114.06,63.75200000000001,81,98,8.746420901932714,MX,1593006543
86,banda aceh,5.56,95.32,81.24799999999999,74,90,1.811918396564066,ID,1593006543
87,nikolskoye,59.7,30.79,82.39999999999992,28,92,11.184681460272012,RU,1593006543
88,paranaiba,-19.68,-51.19,75.97399999999999,51,95,7.89638511095204,BR,1593006543
89,kaohsiung,22.62,120.31,85.99999999999994,70,40,5.8160343593414465,TW,1593006544
90,gimli,50.63,-96.99,67.99999999999994,79,0,4.608088761632069,CA,1593006544
91,inhambane,-23.86,35.38,75.19999999999999,64,75,9.171438797423049,MZ,1593006544
92,hirara,24.8,125.28,83.93,86,100,17.51521116678597,JP,1593006544
93,tuktoyaktuk,69.45,-133.04,37.39999999999998,86,90,8.05297065139585,CA,1593006544
94,luang prabang,19.89,102.13,79.59199999999993,75,94,1.700071581961346,LA,1593006544
95,mar del plata,-38,-57.56,53.00600000000003,93,99,3.3554044380816035,AR,1593006544
96,torbay,47.67,-52.73,75.19999999999999,73,75,17.2244094488189,CA,1593006496
97,sobolevo,54.43,31.9,75.36200000000002,60,0,5.748926270579814,RU,1593006544
98,yenangyaung,20.47,94.88,86.77399999999994,61,96,10.22279885468862,MM,1593006544
99,kaitangata,-46.28,169.85,46.00400000000002,90,99,8.00823192555476,NZ,1593006544
100,isangel,-19.55,169.27,74.12000000000006,86,99,8.589835361488905,VU,1593006545
101,toguchin,55.24,84.39,67.262,81,44,5.637079455977094,RU,1593006545
102,aguia branca,-18.98,-40.74,76.72999999999996,43,51,4.250178954903364,BR,1593006545
103,padang,-0.95,100.35,81.73399999999998,55,100,5.435755189692198,ID,1593006545
104,aranos,-24.13,19.12,73.04000000000002,19,0,13.667680744452399,NA,1593006545
105,kamenka,51.32,42.77,69.00799999999998,70,83,11.005726556907659,RU,1593006545
106,nanortalik,60.14,-45.24,43.82600000000002,72,53,5.9502505368647105,GL,1593006545
107,sao filipe,14.9,-24.5,78.02600000000001,78,7,6.755547602004295,CV,1593006545
109,bandar,2.05,99.75,77.84600000000006,86,100,1.789549033643522,ID,1593006545
110,talnakh,69.49,88.4,64.39999999999992,55,92,2.2369362920544025,RU,1593006545
111,katsuura,35.13,140.3,71.00600000000003,90,95,2.9974946313528994,JP,1593006545
112,bandarbeyla,9.49,50.81,92.10200000000003,45,0,24.091803865425913,SO,1593006545
113,hithadhoo,-0.6,73.08,84.03799999999995,77,69,9.820150322118826,MV,1593006546
115,paamiut,61.99,-49.67,40.910000000000025,79,100,1.5211166785969936,GL,1593006546
116,zyryanskoye,56.83,86.63,68.75600000000003,78,48,2.840909090909091,RU,1593006546
117,yellowknife,62.46,-114.35,60.00799999999998,62,75,8.05297065139585,CA,1593006362
118,klaksvik,62.23,-6.59,49.99999999999994,87,75,12.750536864710094,FO,1593006546
119,soavinandriana,-19.17,46.73,65.62399999999997,70,89,1.096098783106657,MG,1593006546
120,palmer,42.16,-72.33,78.00799999999998,83,90,3.3554044380816035,US,1593006546
121,sainte-suzanne,-20.91,55.61,71.59999999999997,78,75,16.1059413027917,RE,1593006546
122,cherskiy,68.75,161.3,44.329999999999984,60,97,7.851646385110952,RU,1593006546
125,souillac,-20.52,57.52,75.19999999999999,69,40,11.40837508947745,MU,1593006485
126,pacific grove,36.62,-121.92,57.19999999999999,87,90,2.706692913385827,US,1593006360
127,pisco,-13.7,-76.22,60.99799999999999,93,90,6.9345025053686475,PE,1593006546
128,severodvinsk,64.56,39.83,62.599999999999966,45,20,6.710808876163207,RU,1593006546
129,voh,-20.97,164.7,65.53399999999993,78,1,1.4763779527559056,NC,1593006547
130,port blair,11.67,92.75,83.012,81,99,9.596456692913385,IN,1593006547
131,tupik,54.43,119.93,52.952000000000055,71,0,2.035612025769506,RU,1593006547
132,yuci,37.68,112.73,66.19999999999999,72,55,6.710808876163207,CN,1593006547
133,grand gaube,-20.01,57.66,73.00399999999996,71,0,5.010737294201862,MU,1593006547
134,punta gorda,26.93,-82.05,85.99999999999994,74,20,3.3777738010021476,US,1593006465
135,sitka,57.05,-135.33,49.99999999999994,81,90,0.6934502505368647,US,1593006547
136,vao,-22.67,167.48,70.57400000000001,70,6,12.68342877594846,NC,1593006547
137,gunjur,13.2,-16.73,91.39999999999992,63,75,11.050465282748748,GM,1593006547
138,ribeira grande,38.52,-28.7,67.99999999999994,68,20,10.28990694345025,PT,1593006547
139,moussoro,13.64,16.49,108.12200000000001,7,59,4.787043664996421,TD,1593006547
140,los altos,37.39,-122.11,62.599999999999966,82,75,4.6975662133142455,US,1593006362
141,nuuk,64.18,-51.72,39.19999999999993,93,75,6.9345025053686475,GL,1593006547
142,mangrol,21.12,70.12,87.44,72,12,9.596456692913385,IN,1593006547
143,port hedland,-20.32,118.57,62.599999999999966,88,0,2.2369362920544025,AU,1593006547
144,craig,40.52,-107.55,55.39999999999992,76,20,5.346277738010022,US,1593006548
145,derzhavinsk,51.1,66.32,76.334,28,81,12.795275590551181,KZ,1593006548
146,sambava,-14.27,50.17,75.25399999999996,74,2,16.79939155332856,MG,1593006548
148,nemuro,43.32,145.57,50.10799999999995,91,100,4.518611309949892,JP,1593006548
149,karratha,-20.74,116.85,70.68199999999996,69,0,6.06209735146743,AU,1593006548
150,salt,32.04,35.73,84.19999999999999,32,0,16.1059413027917,JO,1593006300
152,baruun-urt,46.68,113.28,63.03199999999998,62,65,16.35200429491768,MN,1593006548
153,taguatinga,-12.39,-46.57,84.46999999999997,45,0,8.299033643521833,BR,1593006549
155,la ciotat,43.17,5.6,87.00799999999998,37,0,8.992483894058696,FR,1593006549
156,bria,6.54,21.99,83.62399999999997,69,0,4.719935576234788,CF,1593006549
157,faanui,-16.48,-151.75,78.97999999999996,85,87,11.67680744452398,PF,1593006549
158,constitucion,-35.33,-72.42,50.089999999999975,77,100,10.043843951324266,CL,1593006549
159,mount isa,-20.73,139.5,58.99999999999994,26,0,8.05297065139585,AU,1593006549
160,bandipur,27.93,84.42,74.714,87,80,1.744810307802434,NP,1593006549
161,yumaguzino,52.9,56.39,64.34600000000006,68,79,8.410880458124552,RU,1593006549
162,knysna,-34.04,23.05,84.19999999999999,17,0,9.171438797423049,ZA,1593006549
163,arraial do cabo,-22.97,-42.03,76.99999999999994,53,20,11.40837508947745,BR,1593006549
164,wertheim,49.76,9.51,78.00799999999998,41,0,6.755547602004295,DE,1593006549
165,vanavara,60.34,102.28,65.55200000000008,58,0,3.9593772369362923,RU,1593006549
166,vanimo,-2.67,141.3,79.88000000000005,83,57,7.180565497494632,PG,1593006550
167,fairbanks,64.84,-147.72,49.99999999999994,93,90,5.8160343593414465,US,1593006550
168,sao joao da barra,-21.64,-41.05,76.99999999999994,60,57,6.9345025053686475,BR,1593006550
169,chokurdakh,70.63,147.92,63.787999999999954,44,4,11.542591267000716,RU,1593006168
170,iqaluit,63.75,-68.51,39.19999999999993,93,75,5.8160343593414465,CA,1593006550
171,chumikan,54.72,135.31,40.35200000000003,96,93,8.746420901932714,RU,1593006550
172,san-pedro,4.75,-6.64,81.05000000000001,73,89,10.379384395132426,CI,1593006550
173,berlevag,70.86,29.09,49.99999999999994,87,75,18.342877594846097,NO,1593006550
174,tbilisskaya,45.36,40.19,83.04799999999994,63,100,0.5816034359341447,RU,1593006550
175,kislovodsk,43.91,42.72,89.59999999999997,31,75,8.94774516821761,RU,1593006550
176,jacksonville,30.33,-81.66,84.19999999999999,74,40,10.28990694345025,US,1593006479
177,oussouye,12.48,-16.55,94.99999999999994,56,75,4.6975662133142455,SN,1593006551
178,chernyshevskiy,63.01,112.47,57.05599999999998,93,30,4.675196850393701,RU,1593006551
179,sao miguel do araguaia,-13.28,-50.16,84.09199999999993,52,5,10.826771653543307,BR,1593006551
180,geraldton,-28.77,114.6,60.80000000000001,77,75,10.28990694345025,AU,1593006551
181,ostrovnoy,68.05,39.51,47.065999999999974,70,4,10.446492483894058,RU,1593006551
182,omsukchan,62.53,155.8,57.32600000000008,41,92,3.4672512526843238,RU,1593006551
183,havoysund,71,24.66,49.99999999999994,81,40,18.342877594846097,NO,1593006551
185,saint george,37.1,-113.58,75.19999999999999,15,1,0.9171438797423049,US,1593006314
186,bilibino,68.05,166.44,42.74599999999998,65,7,4.22780959198282,RU,1593006551
187,tuatapere,-46.13,167.68,45.68000000000001,90,98,3.78042233357194,NZ,1593006551
188,yabrud,33.97,36.66,93.19999999999999,17,0,11.40837508947745,SY,1593006551
189,bethel,41.37,-73.41,76.99999999999994,69,90,9.171438797423049,US,1593006551
190,bereda,43.27,-7.54,85.99999999999994,58,0,5.994989262705799,ES,1593006551
192,nome,64.5,-165.41,37.99400000000003,74,90,10.28990694345025,US,1593006552
193,albany,42.6,-73.97,69.00799999999998,72,86,10.379384395132426,US,1593006364
194,fuente de oro,3.46,-73.61,75.07400000000001,90,99,2.2145669291338583,CO,1593006552
195,rio grande,-32.03,-52.1,80.59999999999997,44,98,23.040443808160347,BR,1593006361
196,lebu,-37.62,-73.65,47.894000000000005,84,100,10.916249105225484,CL,1593006552
197,barry,51.41,-3.27,82.39999999999992,51,0,6.9345025053686475,GB,1593006552
199,gallup,35.53,-108.74,62.599999999999966,25,1,7.963493199713672,US,1593006330
200,balkanabat,39.51,54.37,102.81200000000007,9,0,0.7381889763779528,TM,1593006552
201,vilcun,-38.65,-72.23,42.799999999999955,93,75,4.6975662133142455,CL,1593006552
202,hambantota,6.12,81.12,80.59999999999997,100,75,2.2369362920544025,LK,1593006552
203,ilulissat,69.22,-51.1,39.19999999999993,86,75,4.6975662133142455,GL,1593006552
204,swellendam,-34.02,20.44,66.19999999999999,72,0,9.73067287043665,ZA,1593006552
205,parana,-31.73,-60.52,58.99999999999994,91,92,5.010737294201862,AR,1593006553
206,east london,-33.02,27.91,78.80000000000001,30,0,8.05297065139585,ZA,1593006553
207,meulaboh,4.14,96.13,79.69999999999999,79,77,2.4606299212598426,ID,1593006553
208,shelburne,44.08,-80.2,58.99999999999994,72,75,14.987473156764496,CA,1593006553
209,fortuna,40.6,-124.16,55.00399999999996,100,90,4.6975662133142455,US,1593006553
210,nova olimpia,-14.8,-57.29,85.71200000000005,38,0,8.858267716535433,BR,1593006553
212,vila franca do campo,37.72,-25.43,66.19999999999999,68,20,16.1059413027917,PT,1593006553
213,petropavlovsk-kamchatskiy,53.05,158.65,49.99999999999994,93,2,4.473872584108805,RU,1593006553
214,san jose de buan,12.05,125.03,75.39799999999997,93,100,2.102720114531138,PH,1593006553
215,saint-joseph,-21.37,55.62,73.39999999999992,73,75,21.921975662133143,RE,1593006553
216,beckley,37.78,-81.19,66.19999999999999,82,1,6.9345025053686475,US,1593006345
217,berdigestyakh,62.1,126.7,58.910000000000025,74,10,2.706692913385827,RU,1593006553
219,longyearbyen,78.22,15.64,46.39999999999998,75,75,5.8160343593414465,SJ,1593006553
221,doha,25.29,51.53,102.00200000000001,32,0,9.171438797423049,QA,1593006553
222,hailey,43.52,-114.32,58.99999999999994,58,1,11.40837508947745,US,1593006553
223,san cristobal,7.77,-72.22,76.99999999999994,53,40,2.2369362920544025,VE,1593006554
224,puerto ayora,-0.74,-90.35,71.00600000000003,91,59,10.155690765926987,EC,1593006554
225,mikropolis,41.19,23.82,89.00600000000003,58,28,4.00411596277738,GR,1593006554
226,asekeyevo,53.57,52.8,62.815999999999974,84,100,11.67680744452398,RU,1593006554
227,luanda,-8.84,13.23,80.59999999999997,65,97,10.28990694345025,AO,1593006554
228,coihaique,-45.58,-72.07,30.199999999999932,100,20,4.6975662133142455,CL,1593006554
229,caravelas,-17.71,-39.25,78.7100000000001,53,17,4.563350035790981,BR,1593006554
230,tourlaville,49.64,-1.57,75.19999999999999,53,0,13.869005010737295,FR,1593006554
231,cleethorpes,53.56,-0.03,80.59999999999997,77,0,8.05297065139585,GB,1593006554
232,sombrerete,23.63,-103.65,65.12000000000006,52,0,4.719935576234788,MX,1593006554
233,alta floresta,-9.88,-56.09,82.39999999999992,61,10,5.8160343593414465,BR,1593006554
234,roma,43.21,-75.46,66.9919999999999,68,75,9.171438797423049,US,1593006364
235,kudahuvadhoo,2.67,72.89,83.83999999999997,76,99,12.661059413027917,MV,1593006554
236,fukue,32.69,128.84,77.28799999999995,89,100,23.487831066571225,JP,1593006555
237,lexington,37.99,-84.48,69.00799999999998,82,90,6.9345025053686475,US,1593006555
238,tilichiki,60.47,166.1,48.16399999999999,96,64,3.6462061560486756,RU,1593006555
239,la rioja,42.25,-2.5,85.99999999999994,45,85,6.9345025053686475,ES,1593006555
241,saskylakh,71.92,114.08,79.96999999999997,36,5,3.7356836077308517,RU,1593006555
242,new norfolk,-42.78,147.06,53.99600000000004,93,100,0.4697566213314245,AU,1593006555
243,baykit,61.67,96.37,68.28799999999995,60,80,3.825161059413028,RU,1593006555
244,kulunda,52.57,78.94,73.59800000000001,57,49,14.7861488904796,RU,1593006555
246,yanam,16.73,82.22,89.59999999999997,66,40,10.28990694345025,IN,1593006555
247,cabo san lucas,22.89,-109.91,84.9919999999999,31,5,12.616320687186828,MX,1593006555
248,nadym,65.53,72.52,59.557999999999936,53,96,13.175554760200429,RU,1593006555
249,istok,42.78,20.49,71.59999999999997,53,75,2.2369362920544025,XK,1593006555
250,xai-xai,-25.05,33.64,70.286,69,6,6.1515748031496065,MZ,1593006556
251,izhma,65.01,53.91,43.286,90,100,7.650322118826056,RU,1593006556
252,romitan,39.93,64.38,100.39999999999992,14,0,11.40837508947745,UZ,1593006556
253,encruzilhada do sul,-30.54,-52.52,66.14600000000002,75,100,8.90300644237652,BR,1593006556
254,rio gallegos,-51.62,-69.22,30.199999999999932,92,90,11.40837508947745,AR,1593006556
255,orbetello,42.44,11.22,85.99999999999994,35,20,17.2244094488189,IT,1593006556
256,port moresby,-9.44,147.18,78.80000000000001,94,75,5.8160343593414465,PG,1593006457
259,fort saint james,54.43,-124.25,50.81000000000006,62,29,3.2659269863994274,CA,1593006557
260,el ocotito,17.25,-99.57,75.19999999999999,94,90,4.6975662133142455,MX,1593006557
261,asyut,27.18,31.18,105.656,7,0,17.917859699355763,EG,1593006557
263,flin flon,54.77,-101.86,64.39999999999992,63,75,4.6975662133142455,CA,1593006557
264,waddan,29.16,16.14,95.68399999999991,15,0,7.717430207587689,LY,1593006557
265,sabha,27.04,14.43,101.57,9,0,1.3197924123120972,LY,1593006557
266,taksimo,56.34,114.88,57.84800000000001,79,49,1.2974230493915533,RU,1593006557
267,vardo,70.37,31.11,48.19999999999993,87,75,11.40837508947745,NO,1593006557
268,kahului,20.89,-156.47,71.59999999999997,68,20,9.84251968503937,US,1593006558
269,tignere,7.37,12.65,75.84800000000001,76,100,7.1358267716535435,CM,1593006558
271,gamboula,4.12,15.14,76.4600000000001,92,98,2.4158911954187547,CF,1593006558
272,haines junction,60.75,-137.51,44.402000000000044,72,82,5.010737294201862,CA,1593006558
273,georgetown,5.41,100.34,80.59999999999997,94,20,2.2369362920544025,MY,1593006487
274,grand baie,-20.02,57.58,73.00399999999996,71,0,5.010737294201862,MU,1593006558
275,krasnoarmeysk,51.02,45.7,62.99600000000004,93,98,7.001610594130279,RU,1593006558
276,carballo,43.21,-8.69,66.9919999999999,80,3,1.990873299928418,ES,1593006558
277,taoudenni,22.68,-3.98,114.15199999999999,5,0,25.97083035075161,ML,1593006558
278,onverwacht,5.58,-55.18,84.00200000000001,83,20,4.6975662133142455,SR,1593006558
279,vila velha,-20.33,-40.29,76.99999999999994,61,20,5.8160343593414465,BR,1593006558
282,vilhena,-12.74,-60.15,76.99999999999994,61,0,9.171438797423049,BR,1593006453
283,shenzhen,22.55,114.07,87.00799999999998,84,20,15.658554044380816,CN,1593006559
284,sibolga,1.74,98.78,80.99600000000004,74,99,2.9080171796707233,ID,1593006369
285,prince george,53.92,-122.75,51.99799999999999,100,90,3.3554044380816035,CA,1593006559
286,esperance,-33.87,121.9,49.99999999999994,71,40,8.05297065139585,AU,1593006559
287,vestmannaeyjar,63.44,-20.27,51.799999999999955,81,75,11.40837508947745,IS,1593006559
288,camopi,3.17,-52.32,81.33800000000002,85,5,2.6395848246241944,GF,1593006559
289,menzelinsk,55.73,53.1,69.80000000000001,30,40,15.658554044380816,RU,1593006559
290,mount gambier,-37.83,140.77,48.19999999999993,100,40,10.28990694345025,AU,1593006559
291,sovetskiy,61.36,63.58,58.81999999999999,51,93,11.005726556907659,RU,1593006559
292,caconda,-13.73,15.07,81.536,15,71,1.6105941302791695,AO,1593006559
293,half moon bay,37.46,-122.43,60.80000000000001,93,90,6.9345025053686475,US,1593006559
294,chapais,49.78,-74.85,69.80000000000001,88,75,12.750536864710094,CA,1593006559
295,concordia,-31.39,-58.02,58.99999999999994,100,90,6.9345025053686475,AR,1593006538
296,kardla,59,22.75,67.99999999999994,60,0,8.05297065139585,EE,1593006559
297,ewa beach,21.32,-158.01,76.99999999999994,65,40,6.9345025053686475,US,1593006559
298,bud,39.45,-86.18,71.99600000000004,68,1,5.8160343593414465,US,1593006560
299,gorin,51.2,136.67,55.50799999999998,82,100,1.3421617752326414,RU,1593006560
300,kousseri,12.08,15.03,103.99999999999994,33,20,11.40837508947745,CM,1593006560
301,tonstad,58.66,6.72,73.39999999999992,64,0,13.869005010737295,NO,1593006560
302,husavik,66.04,-17.34,58.99999999999994,58,75,19.4613457408733,IS,1593006560
303,harper,4.38,-7.72,79.80799999999994,74,69,9.797780959198281,LR,1593006560
304,gravdal,68.12,13.5,58.99999999999994,62,20,4.6975662133142455,NO,1593006560
305,burhanpur,21.3,76.23,90.71599999999995,52,88,2.840909090909091,IN,1593006560
306,yar-sale,66.83,70.83,55.093999999999994,48,16,14.540085898353615,RU,1593006560
307,bull savanna,17.89,-77.59,82.56200000000007,66,0,7.918754473872585,JM,1593006561
308,pevek,69.7,170.31,29.894000000000005,98,29,9.685934144595562,RU,1593006561
309,basay,9.41,122.64,81.82400000000001,80,100,4.496241947029348,PH,1593006561
310,port lincoln,-34.73,135.87,54.212000000000046,85,0,12.325518969219756,AU,1593006561
311,ponta do sol,32.67,-17.1,76.99999999999994,53,40,12.750536864710094,PT,1593006562
312,saint-augustin,51.23,-58.65,67.334,76,96,15.390121689334288,CA,1593006562
313,dum duma,27.57,95.57,75.19999999999999,100,90,3.3554044380816035,IN,1593006562
314,carutapera,-1.2,-46.02,81.06800000000004,87,24,9.23854688618468,BR,1593006562
316,sarangani,5.4,125.46,84.344,75,100,10.40175375805297,PH,1593006562
317,carhuamayo,-10.92,-76.03,42.49400000000003,63,9,2.5501073729420183,PE,1593006562
319,jonesboro,35.84,-90.7,78.00799999999998,56,1,9.50697924123121,US,1593006380
320,pandan,14.05,124.17,82.21999999999997,83,100,8.164817465998569,PH,1593006562
321,kruisfontein,-34,24.73,76.24400000000009,22,0,8.94774516821761,ZA,1593006562
322,novaya igirma,57.13,103.91,66.19999999999999,56,40,1.7671796707229779,RU,1593006562
323,necochea,-38.55,-58.74,49.99999999999994,93,99,1.990873299928418,AR,1593006562
324,domnesti,45.2,24.83,78.00799999999998,63,25,3.243557623478883,RO,1593006562
325,lakewood,39.7,-105.08,71.99600000000004,51,0,1.0066213314244812,US,1593006400
326,mayo,38.89,-76.51,78.99799999999999,57,1,11.40837508947745,US,1593006563
327,sarangarh,21.6,83.08,91.21999999999997,50,62,3.400143163922692,IN,1593006563
328,bathsheba,13.22,-59.52,85.99999999999994,70,40,23.040443808160347,BB,1593006563
329,bianzhuang,34.85,118.04,76.99999999999994,99,6,4.719935576234788,CN,1593006563
330,panzhihua,26.59,101.71,76.94599999999997,67,93,0.4921259842519685,CN,1593006563
331,kutum,14.2,24.67,97.80799999999994,10,64,12.101825340014317,SD,1593006563
332,taganak,6.08,118.3,80.59999999999997,88,20,10.379384395132426,PH,1593006563
333,baculin,7.45,126.58,80.06,77,97,3.400143163922692,PH,1593006563
334,walvis bay,-22.96,14.51,78.00799999999998,31,0,1.990873299928418,NA,1593006563
335,dasoguz,41.84,59.97,94.99999999999994,11,0,9.171438797423049,TM,1593006563
336,miramar,25.99,-80.23,89.99600000000004,78,40,3.3554044380816035,US,1593006394
337,yerbogachen,61.28,108.01,57.25399999999996,81,44,1.811918396564066,RU,1593006563
338,tanout,14.97,8.89,105.88999999999993,7,0,10.871510379384397,NE,1593006564
339,margate,51.38,1.39,78.00799999999998,56,0,5.994989262705799,GB,1593006564
340,bambous virieux,-20.34,57.76,75.19999999999999,69,40,11.40837508947745,MU,1593006564
341,la ronge,55.1,-105.28,60.80000000000001,87,90,9.171438797423049,CA,1593006564
342,olafsvik,64.89,-23.71,52.178,75,65,7.44899785254116,IS,1593006564
343,isla vista,34.41,-119.86,64.00399999999996,93,90,5.8160343593414465,US,1593006484
345,invermere,50.52,-116.04,58.99999999999994,87,100,2.3935218324982106,CA,1593006564
346,puerto escondido,15.85,-97.07,76.99999999999994,83,90,6.9345025053686475,MX,1593006564
347,palana,59.12,159.97,41.98999999999995,92,12,11.050465282748748,RU,1593006564
350,northam,51.03,-4.22,80.99600000000004,58,0,2.9974946313528994,GB,1593006564
351,tortoli,39.93,9.66,80.59999999999997,61,20,11.40837508947745,IT,1593006564
352,mazagao,-0.12,-51.29,84.19999999999999,94,75,4.6975662133142455,BR,1593006565
353,zhadovka,53.57,46.95,66.88399999999996,73,100,4.026485325697925,RU,1593006565
354,praia da vitoria,38.73,-27.07,66.19999999999999,63,20,8.142448103078024,PT,1593006565
355,biak,-0.91,122.88,75.97399999999999,86,100,6.397637795275591,ID,1593006565
356,san carlos,9.66,-68.58,83.786,68,98,1.6777022190408017,VE,1593006565
357,dicabisagan,17.08,122.42,81.66199999999998,83,91,7.918754473872585,PH,1593006565
358,port hardy,50.7,-127.42,55.39999999999992,87,75,8.05297065139585,CA,1593006367
359,riyadh,24.69,46.72,103.99999999999994,7,0,17.2244094488189,SA,1593006561
360,ronne,55.1,14.71,73.39999999999992,49,70,6.9345025053686475,DK,1593006565
361,turangi,-39,175.93,44.636000000000024,73,100,9.551717967072298,NZ,1593006565
362,hammerfest,70.66,23.68,49.99999999999994,81,75,25.27738010021475,NO,1593006565
363,mezen,65.85,44.24,46.52600000000007,73,98,9.193808160343595,RU,1593006565
364,dudinka,69.41,86.18,64.39999999999992,55,20,2.2369362920544025,RU,1593006565
365,aykhal,66,111.5,75.19999999999999,27,0,4.473872584108805,RU,1593006565
366,chalus,36.66,51.42,85.99999999999994,66,0,11.40837508947745,IR,1593006566
367,ondjiva,-17.07,15.73,78.80000000000001,24,0,9.171438797423049,AO,1593006566
368,faya,18.39,42.45,84.19999999999999,11,100,6.9345025053686475,SA,1593006566
369,keti bandar,24.14,67.45,90.35599999999994,68,0,15.188797423049392,PK,1593006566
370,stephenville,32.22,-98.2,73.99400000000009,88,75,9.171438797423049,US,1593006429
371,the valley,18.22,-63.06,85.99999999999994,66,20,14.987473156764496,AI,1593006413
372,ilici,43.35,17.77,85.99999999999994,30,20,9.171438797423049,BA,1593006566
373,pinega,64.7,43.39,54.37399999999997,47,40,7.426628489620615,RU,1593006566
374,coahuayana,18.73,-103.68,66.19999999999999,93,90,1.1184681460272012,MX,1593006566
375,gamba,-2.65,10,76.76600000000002,75,56,10.245168217609162,GA,1593006566
376,gofitskoye,45.08,43.05,83.30000000000001,58,100,14.517716535433072,RU,1593006566
377,datong,40.09,113.29,66.00200000000001,62,100,7.918754473872585,CN,1593006567
378,mae hong son,19.3,97.97,79.32199999999995,76,100,1.2974230493915533,TH,1593006567
379,cockburn town,21.46,-71.14,82.02199999999999,77,1,16.17304939155333,TC,1593006283
380,idlib,35.93,36.63,84.19999999999999,42,40,21.921975662133143,SY,1593006567
381,norman wells,65.28,-126.83,44.599999999999966,100,75,14.987473156764496,CA,1593006567
382,lasa,46.62,10.7,73.39999999999992,35,5,5.8160343593414465,IT,1593006567
383,waipawa,-41.41,175.52,51.00799999999998,68,84,1.990873299928418,NZ,1593006567
384,quatre cocos,-20.21,57.76,75.19999999999999,69,40,11.40837508947745,MU,1593006567
385,mahibadhoo,3.78,72.97,84.09199999999993,78,97,14.89799570508232,MV,1593006567
386,umm lajj,25.02,37.27,90.57199999999995,40,20,19.863994273443094,SA,1593006567
387,aguilas,37.41,-1.58,87.00799999999998,23,87,1.990873299928418,ES,1593006567
388,monywa,22.12,95.13,85.4600000000001,64,100,3.758052970651396,MM,1593006567
389,uspenskoye,44.83,41.39,82.39999999999992,51,75,6.710808876163207,RU,1593006567
390,arriaga,16.23,-93.9,82.094,67,100,3.3777738010021476,MX,1593006567
391,jalalpur pirwala,29.51,71.22,112.63999999999993,15,8,12.84001431639227,PK,1593006568
392,saint anthony,45.02,-93.22,66.9919999999999,72,40,3.3554044380816035,US,1593006568
393,pushkinskiye gory,57.02,28.91,78.87200000000001,37,0,5.0331066571224055,RU,1593006568
394,chuy,-33.7,-53.46,65.19199999999995,87,100,3.4448818897637796,UY,1593006568
396,port elizabeth,-33.92,25.57,84.19999999999999,23,0,12.750536864710094,ZA,1593006568
397,pervomayskoye,43.92,46.71,92.51600000000002,23,30,12.9071224051539,RU,1593006568
398,luan,46.36,6.98,80.00600000000003,73,1,1.990873299928418,CH,1593006568
399,sinnamary,5.38,-52.95,81.71599999999995,80,33,5.100214745884037,GF,1593006568
400,maceio,-9.67,-35.74,78.80000000000001,83,75,5.8160343593414465,BR,1593006516
401,lompoc,34.64,-120.46,57.19999999999999,93,90,3.3554044380816035,US,1593006568
402,lata,40.16,-8.33,82.99400000000009,49,0,9.797780959198281,PT,1593006568
403,birao,10.28,22.79,94.44199999999995,39,66,5.8160343593414465,CF,1593006569
404,rantoul,40.31,-88.16,69.99799999999999,82,1,9.171438797423049,US,1593006569
405,turukhansk,65.82,87.98,66.52399999999994,73,18,5.502863278453829,RU,1593006569
406,sandviken,60.62,16.77,93.00200000000001,22,0,7.001610594130279,SE,1593006569
407,great yarmouth,52.61,1.73,80.59999999999997,44,0,10.28990694345025,GB,1593006569
408,grindavik,63.84,-22.43,55.39999999999992,82,75,11.40837508947745,IS,1593006569
409,fort nelson,58.81,-122.7,51.799999999999955,71,20,2.2369362920544025,CA,1593006569
410,totness,5.88,-56.32,79.43,83,62,6.039727988546887,SR,1593006569
411,boizenburg,53.38,10.72,78.99799999999999,37,98,4.00411596277738,DE,1593006569
412,cayenne,4.93,-52.33,84.19999999999999,74,75,4.6975662133142455,GF,1593006569
413,praia,14.92,-23.51,84.19999999999999,62,75,14.987473156764496,CV,1593006569
414,zambezi,-13.54,23.1,80.79799999999994,18,0,5.010737294201862,ZM,1593006570
415,khorinsk,52.17,109.77,58.928000000000054,78,22,4.1159627773801,RU,1593006570
416,eureka,40.8,-124.16,57.00200000000001,100,0,4.496241947029348,US,1593006570
417,hervey bay,-25.3,152.85,55.994000000000085,61,0,5.010737294201862,AU,1593006570
418,sajanan,37.06,9.24,98.59999999999997,20,0,9.171438797423049,TN,1593006570
419,idaho falls,43.47,-112.03,60.99799999999999,87,75,4.6975662133142455,US,1593006570
421,harrismith,-28.27,29.13,65.83999999999997,23,0,0.4473872584108805,ZA,1593006570
422,toppenish,46.38,-120.31,73.00399999999996,82,64,3.78042233357194,US,1593006570
424,manado,1.49,124.85,76.99999999999994,94,40,1.1184681460272012,ID,1593006570
425,inirida,3.87,-67.92,74.57,96,98,2.102720114531138,CO,1593006570
426,manga,11.66,-1.07,98.69,30,57,8.791159627773801,BF,1593006570
427,sola,-13.88,167.55,81.35599999999994,78,0,8.366141732283465,VU,1593006570
430,sur,22.57,59.53,88.32199999999995,66,0,9.014853256979242,OM,1593006571
431,togur,58.36,82.83,63.62600000000003,76,0,4.809413027916965,RU,1593006571
432,adeje,28.12,-16.73,80.59999999999997,54,20,27.51431639226915,ES,1593006571
434,mango,27.98,-82.31,89.00600000000003,74,40,1.3869005010737294,US,1593006571
435,tanay,14.57,121.35,84.19999999999999,83,40,3.3554044380816035,PH,1593006571
436,daru,-9.08,143.21,78.06200000000007,89,35,12.504473872584109,PG,1593006571
437,belyy yar,53.6,91.39,78.80000000000001,61,75,2.2369362920544025,RU,1593006571
438,chiredzi,-21.05,31.67,67.118,59,73,5.346277738010022,ZW,1593006571
439,mandurah,-32.55,115.7,57.00200000000001,76,100,3.3554044380816035,AU,1593006572
440,bogorodskoye,56.55,37.88,67.262,49,6,12.168933428775949,RU,1593006563
441,codrington,-38.27,141.97,51.583999999999946,87,86,7.605583392984967,AU,1593006572
442,santa luzia,-19.77,-43.85,66.19999999999999,55,79,4.6975662133142455,BR,1593006572
443,zelenogorskiy,55.03,87,76.99999999999994,50,20,11.184681460272012,RU,1593006572
444,pontes e lacerda,-15.23,-59.34,85.28000000000003,45,0,9.61882605583393,BR,1593006572
445,mathathane,-22.27,28.75,72.58999999999997,34,38,11.721546170365068,BW,1593006572
446,sedona,34.87,-111.76,73.39999999999992,13,1,6.9345025053686475,US,1593006452
447,waikuku,-43.3,172.68,46.39999999999998,100,100,6.9345025053686475,NZ,1593006572
448,den helder,52.96,4.76,76.99999999999994,61,90,11.40837508947745,NL,1593006572
449,krasnoselkup,65.7,82.47,64.32800000000003,50,42,7.717430207587689,RU,1593006573
450,narsaq,60.92,-46.05,49.99999999999994,61,75,4.6975662133142455,GL,1593006573
451,mitsamiouli,-11.38,43.28,84.19999999999999,70,20,18.342877594846097,KM,1593006573
452,bontang,0.13,117.5,79.10599999999994,84,98,7.963493199713672,ID,1593006573
453,vaitape,-16.52,-151.75,79.844,83,86,11.587329992841804,PF,1593006573
454,virginia beach,36.85,-75.98,80.99600000000004,72,20,11.072834645669293,US,1593006401
456,honningsvag,70.98,25.97,49.99999999999994,81,40,18.342877594846097,NO,1593006573
457,lavrentiya,65.58,-171,35.581999999999994,81,92,9.775411596277738,RU,1593006573
458,saraland,30.82,-88.07,82.00399999999996,82,74,11.005726556907659,US,1593006573
459,nedryhayliv,50.83,33.88,71.23999999999995,67,3,12.996599856836077,UA,1593006573
460,melo,-32.37,-54.18,70.52000000000004,73,96,16.73228346456693,UY,1593006573
461,sao gabriel da cachoeira,-0.13,-67.09,75.19999999999999,94,75,1.1184681460272012,BR,1593006573
462,ayagoz,47.97,80.44,76.20799999999991,17,0,15.546707229778097,KZ,1593006574
463,koygorodok,60.45,51,49.04599999999999,51,100,9.574087329992842,RU,1593006574
464,oxford,51.75,-1.26,85.99999999999994,39,0,10.28990694345025,GB,1593006538
465,carson city,39.16,-119.77,62.599999999999966,48,1,2.505368647100931,US,1593006574
466,komsomolskiy,40.43,71.72,91.39999999999992,18,62,11.40837508947745,UZ,1593006574
467,nouadhibou,20.93,-17.03,78.80000000000001,61,0,12.750536864710094,MR,1593006574
468,dalvik,65.97,-18.53,58.99999999999994,58,75,19.4613457408733,IS,1593006574
470,bengkulu,-3.8,102.27,77.98999999999995,76,100,6.0844667143879745,ID,1593006574
471,gezing,47.92,13.13,76.99999999999994,38,20,9.171438797423049,AT,1593006574
473,wundanyi,-3.4,38.36,70.37600000000003,66,73,15.41249105225483,KE,1593006574
474,sarkand,45.41,79.92,74.012,20,0,11.050465282748748,KZ,1593006574
475,kununurra,-15.77,128.73,62.599999999999966,30,0,8.634574087329993,AU,1593006574
476,yenagoa,4.92,6.26,82.59800000000001,80,100,7.44899785254116,NG,1593006574
477,cardston,49.2,-113.3,62.99600000000004,67,75,11.40837508947745,CA,1593006575
478,mabaruma,8.2,-59.78,79.89799999999997,90,22,5.972619899785254,GY,1593006575
479,tura,25.52,90.22,77.05400000000003,91,71,5.659448818897637,IN,1593006575
480,lorengau,-2.02,147.27,82.54400000000004,77,12,8.925375805297065,PG,1593006575
481,svetlogorsk,52.63,29.73,74.858,59,12,7.806907659269864,BY,1593006575
482,erenhot,43.65,111.98,74.53399999999993,20,0,17.940229062276305,CN,1593006575
483,sukhumi,43,41.02,78.56599999999997,75,42,6.1515748031496065,GE,1593006575
485,gidole,5.65,37.37,64.92199999999997,86,14,3.1988188976377954,ET,1593006575
487,linxia,35.6,103.21,60.90799999999996,51,0,5.435755189692198,CN,1593006575
488,leh,34.17,77.58,61.19599999999997,41,97,6.733178239083751,IN,1593006575
489,helena,46.59,-112.04,60.99799999999999,63,1,0.5592340730136006,US,1593006364
490,timra,62.49,17.33,82.00399999999996,50,0,10.28990694345025,SE,1593006576
491,susuman,62.78,148.17,53.54599999999999,80,30,1.2974230493915533,RU,1593006576
492,ahipara,-35.17,173.17,55.81400000000002,88,100,6.0844667143879745,NZ,1593006576
493,kozulka,50.04,23.8,69.00799999999998,82,90,4.473872584108805,UA,1593006576
494,takoradi,4.88,-1.76,81.51800000000009,77,50,12.01234788833214,GH,1593006576
495,marzuq,14.4,46.47,92.35399999999998,17,100,5.748926270579814,YE,1593006576
496,casablanca,33.59,-7.62,82.39999999999992,65,20,18.342877594846097,MA,1593006489
497,urumqi,43.8,87.6,82.39999999999992,28,100,4.473872584108805,CN,1593006576
498,anadyr,64.75,177.48,40.99999999999994,93,75,13.421617752326414,RU,1593006576
499,kondinskoye,59.65,67.41,59.108000000000004,72,99,3.89226914817466,RU,1593006576
500,bose,45.46,8.01,84.9919999999999,54,4,1.0066213314244812,IT,1593006576
501,intipuca,13.2,-88.05,82.39999999999992,69,84,4.183070866141732,SV,1593006576
502,mossoro,-5.19,-37.34,87.80000000000001,55,20,8.05297065139585,BR,1593006430
503,byron bay,-28.65,153.62,53.99600000000004,66,0,10.28990694345025,AU,1593006087
504,severo-kurilsk,50.68,156.12,46.63399999999996,85,15,6.17394416607015,RU,1593006576
505,bluefields,12.01,-83.76,84.19999999999999,83,75,6.9345025053686475,NI,1593006576
506,darnah,32.77,22.64,74.55200000000008,69,0,14.808518253400143,LY,1593006577
507,thinadhoo,0.53,72.93,84.64999999999992,76,82,11.855762347888332,MV,1593006577
508,atambua,-9.11,124.89,71.43800000000005,88,44,5.323908375089477,ID,1593006577
509,ormara,25.21,64.64,87.54799999999994,77,14,9.484609878310666,PK,1593006577
510,christchurch,-43.53,172.63,46.39999999999998,100,100,6.9345025053686475,NZ,1593006300
511,surt,31.21,16.59,77.61200000000002,58,0,14.965103793843953,LY,1593006577
512,mpika,-11.83,31.45,70.82600000000008,47,35,8.880637079455978,ZM,1593006577
513,ayan,56.45,138.17,43.322,94,87,2.818539727988547,RU,1593006577
514,peleduy,59.63,112.74,59.108000000000004,77,92,2.5724767358625624,RU,1593006577
515,shintomi,32.08,131.47,73.13000000000005,81,100,1.1855762347888332,JP,1593006577
516,galle,6.04,80.22,81.12200000000001,84,100,10.17806012884753,LK,1593006577
517,pirgos,35.12,25.72,78.80000000000001,65,20,8.05297065139585,GR,1593006577
518,gushikawa,26.35,127.87,82.39999999999992,78,20,8.05297065139585,JP,1593006577
519,shimoda,34.67,138.95,66.00200000000001,95,100,1.0066213314244812,JP,1593006577
520,sidney,-33.87,151.21,57.19999999999999,67,75,16.1059413027917,AU,1593006448
521,viedma,-40.81,-63,49.83800000000002,55,100,11.497852541159627,AR,1593006322
522,seoul,37.57,126.98,71.59999999999997,100,90,6.9345025053686475,KR,1593006578
523,staryy nadym,65.61,72.68,60.170000000000016,50,95,10.871510379384397,RU,1593006578
524,goderich,43.75,-81.72,60.99799999999999,83,74,22.369362920544024,CA,1593006578
525,hojai,26,92.87,80.54599999999999,87,100,5.39101646385111,IN,1593006578
526,korla,41.76,86.15,86.79199999999997,16,99,3.0198639942734435,CN,1593006578
527,ileza,61.05,43.9,58.87399999999997,39,6,10.334645669291339,RU,1593006578
528,labrea,-7.26,-64.8,86.37799999999999,55,49,2.6843235504652827,BR,1593006578
530,pinos,22.3,-101.57,58.99999999999994,93,90,6.9345025053686475,MX,1593006578
531,wanaka,-44.7,169.15,31.999999999999943,91,2,1.0066213314244812,NZ,1593006578
532,kieta,-6.22,155.63,77.89999999999992,71,0,5.413385826771654,PG,1593006578
533,richards bay,-28.78,32.04,73.50799999999998,47,0,10.021474588403724,ZA,1593006578
534,tarnogskiy gorodok,60.5,43.58,60.67399999999992,38,0,10.759663564781674,RU,1593006578
535,genhe,50.78,121.52,48.829999999999984,82,25,2.9080171796707233,CN,1593006578
536,pangai,-19.8,-174.35,75.36200000000002,80,53,13.041338582677165,TO,1593006579
537,khorixas,-20.37,14.97,80.56400000000002,16,0,11.922870436649964,NA,1593006579
538,olinda,-8.01,-34.86,82.39999999999992,65,20,13.869005010737295,BR,1593006579
539,prachuap khiri khan,11.82,99.78,82.27399999999994,81,98,5.323908375089477,TH,1593006579
540,nybro,56.74,15.91,75.19999999999999,53,0,13.869005010737295,SE,1593006579
541,lerwick,60.15,-1.15,57.19999999999999,87,40,9.171438797423049,GB,1593006579
542,zmeinogorsk,51.16,82.19,69.31400000000002,77,7,11.139942734430925,RU,1593006579
543,hofn,64.25,-15.21,51.799999999999955,87,90,18.342877594846097,IS,1593006579
544,pitimbu,-7.47,-34.81,82.39999999999992,65,20,19.4613457408733,BR,1593006579
545,gashua,12.87,11.05,104.30599999999998,15,41,4.294917680744453,NG,1593006579
546,suba,10.84,121.01,85.49600000000004,68,100,2.6619541875447386,PH,1593006579
547,kalmunai,7.42,81.82,82.36399999999998,77,91,3.243557623478883,LK,1593006579
548,aquiraz,-3.9,-38.39,82.39999999999992,58,40,14.987473156764496,BR,1593006579
549,guasdualito,7.24,-70.73,82.39999999999992,78,99,3.3554044380816035,VE,1593006579
550,zhigansk,66.77,123.37,68.41400000000004,52,36,6.0173586256263425,RU,1593006579
551,ixtapa,20.7,-105.2,82.39999999999992,83,75,3.3554044380816035,MX,1593006580
552,tigre,-34.43,-58.58,53.99600000000004,81,75,8.05297065139585,AR,1593006580
553,kapit,2.02,112.93,74.17399999999992,94,100,1.744810307802434,MY,1593006580
554,portland,45.52,-122.68,66.00200000000001,82,40,4.6975662133142455,US,1593006369
555,jardim,-21.48,-56.14,79.59199999999993,41,67,12.817644953471726,BR,1593006300
556,cabedelo,-6.98,-34.83,82.39999999999992,65,20,19.4613457408733,BR,1593006581
557,araouane,18.9,-3.53,106.69999999999999,5,0,4.272548317823908,ML,1593006581
558,muslyumovo,55.3,53.19,63.33800000000002,72,53,8.589835361488905,RU,1593006581
559,ballina,-28.87,153.57,53.99600000000004,66,0,10.28990694345025,AU,1593006581
560,coromandel,-18.47,-47.2,71.22200000000004,56,5,9.73067287043665,BR,1593006581
561,mizan teferi,6.98,35.58,68.738,93,83,1.4092698639942736,ET,1593006581
563,mwaya,-9.55,33.95,76.4600000000001,65,8,9.864889047959915,TZ,1593006581
564,kiunga,-6.12,141.29,73.76000000000005,98,83,2.3040443808160345,PG,1593006581
565,nandura,20.83,76.45,89.4919999999999,56,98,2.7514316392269147,IN,1593006581
566,verkhnyaya inta,65.98,60.31,48.50599999999997,54,89,7.717430207587689,RU,1593006581
567,udachnyy,66.42,112.4,75.19999999999999,27,0,4.473872584108805,RU,1593006581
568,juegang,32.32,121.19,76.04599999999999,87,72,5.122584108804581,CN,1593006581
569,bilma,18.69,12.92,110.57,6,0,14.003221188260557,NE,1593006581
570,sheridan,44.83,-106.92,64.99400000000009,63,1,2.818539727988547,US,1593006341
571,dawson creek,55.77,-120.24,51.799999999999955,76,1,3.3554044380816035,CA,1593006582
572,srednekolymsk,67.45,153.68,58.712000000000046,36,0,9.28328561202577,RU,1593006582
573,bodden town,19.28,-81.25,85.99999999999994,84,20,10.28990694345025,KY,1593006582
574,laguna,38.42,-121.42,62.00600000000003,77,5,5.8160343593414465,US,1593006582
575,ta khmau,11.48,104.95,85.99999999999994,79,40,4.6975662133142455,KH,1593006582
577,atagay,55.1,99.39,67.22600000000006,63,0,3.0198639942734435,RU,1593006582
578,antofagasta,-23.65,-70.4,57.19999999999999,76,40,3.3554044380816035,CL,1593006582
579,ostroleka,53.09,21.58,76.99999999999994,53,28,5.8160343593414465,PL,1593006582
580,navirai,-23.07,-54.19,74.19199999999995,50,55,10.133321403006443,BR,1593006582
581,ambilobe,-13.2,49.05,77.98999999999995,63,0,1.789549033643522,MG,1593006582
582,touros,-5.2,-35.46,80.59999999999997,74,75,11.40837508947745,BR,1593006582
583,kysyl-syr,63.9,122.76,66.36200000000002,57,3,5.793664996420902,RU,1593006582
584,mandalgovi,45.76,106.27,58.01000000000005,68,92,22.68253400143164,MN,1593006582
585,balabac,7.99,117.06,83.37200000000001,75,0,6.241052254831782,PH,1593006582
586,waitati,-45.75,170.57,46.99400000000003,90,85,9.999105225483177,NZ,1593006582
587,luena,-11.78,19.92,78.80000000000001,47,0,8.05297065139585,AO,1593006582
588,jeremie,18.65,-74.12,84.54199999999997,67,0,1.6329634931997137,HT,1593006583
589,broken hill,-31.95,141.43,49.99999999999994,66,0,5.8160343593414465,AU,1593006583
590,orsha,54.52,30.41,78.80000000000001,38,75,11.184681460272012,BY,1593006583
591,nishihara,26.18,127.76,82.39999999999992,78,40,9.171438797423049,JP,1593006583
592,coquimbo,-29.95,-71.34,53.599999999999966,93,90,3.3554044380816035,CL,1593006583
593,kosh-agach,50,88.67,56.24600000000004,62,92,7.046349319971367,RU,1593006583
596,kropotkin,45.44,40.58,83.87600000000003,61,100,3.243557623478883,RU,1593006583
597,san policarpo,12.18,125.51,83.28199999999998,81,100,8.00823192555476,PH,1593006583
598,altay,47.87,88.12,68.50399999999996,44,89,9.73067287043665,CN,1593006583
599,milkovo,54.72,158.62,55.79599999999999,78,0,2.16982820329277,RU,1593006583
600,nicoya,10.15,-85.45,78.80000000000001,88,22,3.3554044380816035,CR,1593006583
601,pokhara,28.23,83.98,75.59600000000006,79,100,2.125089477451682,NP,1593006583
602,dolores,-36.31,-57.68,53.51000000000005,76,48,12.929491768074445,AR,1593006583
603,bonavista,48.65,-53.11,61.69999999999999,83,44,11.475483178239084,CA,1593006584
604,ngunguru,-35.62,174.5,53.00600000000003,98,100,1.990873299928418,NZ,1593006584
605,ilo,-17.64,-71.34,63.13999999999993,70,96,4.652827487473157,PE,1593006584
606,alice springs,-23.7,133.88,42.799999999999955,48,0,5.61471009305655,AU,1593006584
