,City,Lat,Lng,Max Temp,Humidity,Cloudiness,Wind Speed,Country,Date
0,rikitea,-23.12,-134.97,294.04,61,Clouds,7.14,PF,1592843562
1,parsabad,39.65,47.92,303.15,37,Clouds,6.2,IR,1592843562
2,port alfred,-33.59,26.89,287.04,85,Clear,0.45,ZA,1592843562
3,arraial do cabo,-22.97,-42.03,305.15,51,Clear,1.91,BR,1592843562
4,mataura,-46.19,168.86,277.04,83,Clear,1.34,NZ,1592843484
5,hermanus,-34.42,19.23,285.93,91,Clouds,4.23,ZA,1592843563
6,cape town,-33.93,18.42,290.37,93,Clouds,4.6,ZA,1592843194
7,geraldton,-28.77,114.6,291.15,59,Clouds,8.2,AU,1592843464
8,pisco,-13.7,-76.22,290.93,82,Mist,2.1,PE,1592843510
9,acarau,-2.89,-40.12,302.79,62,Clear,4.72,BR,1592843563
10,puerto ayora,-0.74,-90.35,298.15,69,Clouds,8.2,EC,1592843563
11,uruzgan,32.83,66,298.76,15,Clear,1.03,AF,1592843563
12,dunedin,-45.87,170.5,279.82,80,Clear,6.71,NZ,1592843406
13,yellowknife,62.46,-114.35,295.93,63,Rain,2.6,CA,1592843495
14,albany,42.6,-73.97,306.48,48,Clear,0.45,US,1592843563
15,bryan,30.67,-96.37,302.15,83,Clear,2.1,US,1592843381
16,avarua,-21.21,-159.78,296.15,69,Clear,4.6,CK,1592843418
17,atuona,-9.8,-139.03,299.75,82,Rain,7.31,PF,1592843563
18,bluff,-46.6,168.33,277.04,83,Clear,1.34,NZ,1592843474
19,new norfolk,-42.78,147.06,286.48,92,Rain,0.89,AU,1592843563
20,chapais,49.78,-74.85,297.15,69,Clouds,4.6,CA,1592843559
21,cherskiy,68.75,161.3,281.28,60,Clouds,5.92,RU,1592843480
22,esperance,-33.87,121.9,286.15,37,Clouds,10.3,AU,1592843564
23,vila franca do campo,37.72,-25.43,294.15,83,Clouds,5.1,PT,1592843564
24,hofn,64.25,-15.21,285.15,76,Clouds,6.2,IS,1592843564
26,vaini,-21.2,-175.2,296.15,100,Clouds,2.6,TO,1592843564
27,punta arenas,-53.15,-70.92,278.15,80,Clouds,5.7,CL,1592843564
28,provideniya,64.38,-173.3,287.43,48,Clouds,3.32,RU,1592843564
30,menongue,-14.66,17.69,289.3,35,Clear,2.29,AO,1592843564
31,narsaq,60.92,-46.05,294.15,28,Clouds,3.6,GL,1592843564
32,betong,5.77,101.07,296.23,94,Rain,0.63,TH,1592843564
33,half moon bay,37.46,-122.43,293.71,82,Clouds,2.1,US,1592843564
34,lebu,-37.62,-73.65,285.03,80,Rain,4.65,CL,1592843564
35,havelock,34.88,-76.9,304.15,66,Clouds,4.6,US,1592843564
36,chkalovskoye,44.84,133.04,288.53,96,Clouds,0.97,RU,1592843564
37,barrow,71.29,-156.79,275.15,93,Mist,7.7,US,1592843565
39,bredasdorp,-34.53,20.04,287.15,87,Clear,0.91,ZA,1592843565
40,port moresby,-9.44,147.18,299.15,88,Clouds,5.7,PG,1592843527
41,tiksi,71.69,128.87,277.05,82,Clouds,1.77,RU,1592843565
42,dolores,-36.31,-57.68,286.96,73,Clouds,4.57,AR,1592843361
43,sukumo,32.93,132.73,292.38,90,Clear,1.3,JP,1592843565
44,busselton,-33.65,115.33,288.15,56,Rain,11.14,AU,1592843565
45,aitape,-3.14,142.35,298.47,85,Rain,2.02,PG,1592843565
46,ushuaia,-54.8,-68.3,274.15,86,Clouds,0.83,AR,1592843400
47,abeche,13.83,20.83,312.15,18,Clouds,3.1,TD,1592843565
48,ratnagiri,16.98,73.3,300.78,81,Rain,3.68,IN,1592843565
49,sar-e pul,35.83,66.17,299.49,17,Clouds,0.8,AF,1592843565
50,broome,42.25,-75.83,302.59,61,Clouds,1.5,US,1592843565
52,port hedland,-20.32,118.57,289.15,77,Clear,2.6,AU,1592843565
53,san patricio,19.22,-104.7,305.15,62,Clouds,4.1,MX,1592843565
54,severo-kurilsk,50.68,156.12,280.45,86,Clouds,4.21,RU,1592843566
55,hambantota,6.12,81.12,303.15,70,Clouds,6.2,LK,1592843488
56,qaanaaq,77.48,-69.36,276.77,85,Clouds,2.08,GL,1592843566
57,bara,10.37,10.73,305.43,46,Clear,4.18,NG,1592843471
58,ardatov,55.24,43.1,287.95,74,Clouds,1.89,RU,1592843566
59,havoysund,71,24.66,281.15,81,Clouds,5.1,NO,1592843566
60,souillac,-20.52,57.52,295.15,83,Clouds,4.6,MU,1592843566
61,sitka,57.05,-135.33,284.15,81,Rain,3.1,US,1592843396
62,kodiak,57.79,-152.41,283.15,87,Rain,4.1,US,1592843475
63,kamenka,51.32,42.77,289.14,77,Clouds,2.63,RU,1592843566
64,ponta do sol,32.67,-17.1,297.15,60,Clouds,6.7,PT,1592843566
65,porto belo,-27.16,-48.55,299.26,73,Clear,3.1,BR,1592843566
66,saint-philippe,-21.36,55.77,296.15,73,Clouds,1,RE,1592843566
67,daru,-9.08,143.21,298.23,89,Rain,5.27,PG,1592843567
68,sakti,22.03,82.97,301.46,74,Rain,5.21,IN,1592843567
69,dikson,73.51,80.55,279.28,90,Rain,3.5,RU,1592843469
70,tingo maria,-9.29,-76.01,294.15,100,Clouds,2.6,PE,1592843567
71,rincon,32.3,-81.24,307.04,52,Clouds,2.29,US,1592843554
72,mocuba,-16.84,36.99,292.23,91,Clouds,1.5,MZ,1592843354
74,el transito,13.35,-88.35,300.39,73,Clouds,1.01,SV,1592843567
75,butaritari,3.07,172.79,301.47,73,Clouds,4.3,KI,1592843567
76,harper,4.38,-7.72,299.17,80,Clouds,5.43,LR,1592843420
77,usinsk,65.99,57.53,279.85,89,Clouds,4.21,RU,1592843567
78,hirara,24.8,125.28,301.68,88,Clouds,3.78,JP,1592843567
79,kapaa,22.08,-159.32,298.15,78,Clouds,6.7,US,1592843567
80,kaitangata,-46.28,169.85,274.41,89,Clear,1.69,NZ,1592843567
82,oildale,35.42,-119.02,301.48,42,Clear,2.6,US,1592843496
83,east london,-33.02,27.91,292.75,72,Clear,4.91,ZA,1592843500
84,bethel,41.37,-73.41,305.37,51,Clouds,2.1,US,1592843531
85,houlton,46.13,-67.84,300.37,54,Clear,3.1,US,1592843568
86,kahta,37.79,38.62,303.15,17,Clear,4.1,TR,1592843568
87,port elizabeth,-33.92,25.57,287.15,93,Clear,1.5,ZA,1592843346
88,tasiilaq,65.61,-37.64,286.15,43,Clouds,1,GL,1592843568
89,cabo san lucas,22.89,-109.91,300.37,61,Clear,2.6,MX,1592843568
90,okhotsk,59.38,143.3,280.3,90,Clouds,3.02,RU,1592843568
91,veraval,20.9,70.37,302.78,79,Rain,5.61,IN,1592843568
92,zhigalovo,54.81,105.16,290.09,56,Clouds,1.48,RU,1592843568
93,charters towers,-20.1,146.27,286.36,53,Clouds,3.25,AU,1592843568
94,leirvik,59.78,5.5,290.37,76,Clear,3.13,NO,1592843314
95,kyabe,9.45,18.94,301.87,50,Clouds,1.12,TD,1592843568
96,hobart,-42.88,147.33,286.48,93,Rain,2.6,AU,1592843302
97,comodoro rivadavia,-45.87,-67.5,282.15,66,Clouds,4.1,AR,1592843454
100,acajutla,13.59,-89.83,299.26,88,Clouds,1.5,SV,1592843329
101,christchurch,-43.53,172.63,280.37,100,Drizzle,1,NZ,1592843401
102,fort-de-france,14.61,-61.07,304.15,66,Clouds,9.3,MQ,1592843414
104,viseu,40.66,-7.91,305.37,48,Clear,2.24,PT,1592843569
105,baracoa,20.35,-74.5,304.51,64,Clouds,3.57,CU,1592843569
106,arman,59.7,150.17,282.16,84,Clouds,2.35,RU,1592843569
107,kieta,-6.22,155.63,299.91,76,Clouds,0.98,PG,1592843569
108,teknaf,20.86,92.31,300.93,88,Rain,4.31,BD,1592843569
109,port blair,11.67,92.75,301.63,80,Clouds,5.36,IN,1592843569
110,saskylakh,71.92,114.08,293.66,56,Clear,3.28,RU,1592843569
111,puerto madero,14.72,-92.42,303.15,79,Clouds,3.16,MX,1592843569
112,ikongo,-21.88,47.43,293.48,90,Rain,0.66,MG,1592843569
113,alappuzha,9.49,76.33,300.02,80,Rain,5.48,IN,1592843569
114,changji,44.02,87.32,294.15,28,Clear,2,CN,1592843570
115,ribeira grande,38.52,-28.7,293.15,94,Clouds,9.3,PT,1592843570
116,phalaborwa,-23.94,31.14,288.93,66,Clear,2.65,ZA,1592843570
117,hilo,19.73,-155.09,294.15,83,Rain,1.4,US,1592843503
118,tulun,54.56,100.58,288.74,77,Clouds,2.91,RU,1592843570
119,freeport,40.66,-73.58,305.37,55,Clouds,5.1,US,1592843564
120,kloulklubed,7.04,134.26,299.15,88,Clouds,2.6,PW,1592843570
121,pevek,69.7,170.31,273.54,94,Clear,7.42,RU,1592843570
123,petropavlovsk-kamchatskiy,53.05,158.65,282.15,81,Clouds,4,RU,1592843447
124,clyde river,70.47,-68.59,283.15,76,Clear,1,CA,1592843570
125,khatanga,71.97,102.5,291.52,48,Clouds,6.79,RU,1592843570
126,port lincoln,-34.73,135.87,285.27,72,Clouds,3.52,AU,1592843570
127,atar,20.52,-13.05,316.98,7,Clear,11.17,MR,1592843570
128,chokurdakh,70.63,147.92,279.46,64,Clear,5.39,RU,1592843570
129,kavieng,-2.57,150.8,301.87,70,Clouds,2.59,PG,1592843570
130,ostrovnoy,68.05,39.51,279.83,77,Clouds,7.73,RU,1592843571
131,alofi,-19.06,-169.92,298.83,77,Clouds,6.37,NU,1592843375
132,hithadhoo,-0.6,73.08,302.51,68,Clouds,3.3,MV,1592843443
133,faya,18.39,42.45,300.15,47,Clouds,4.1,SA,1592843478
134,bouna,9.27,-3,304.73,52,Clouds,2.56,CI,1592843571
135,upernavik,72.79,-56.15,278.19,72,Clear,3.16,GL,1592843571
136,hualmay,-11.1,-77.61,293.01,67,Clouds,4.23,PE,1592843571
137,bandar,2.05,99.75,295.32,88,Clouds,1.58,ID,1592843571
138,tananger,58.93,5.6,290.37,72,Clouds,3.6,NO,1592843571
139,sobolevo,54.43,31.9,291.87,92,Rain,1.33,RU,1592843571
140,bajil,15.06,43.29,306.92,34,Clouds,5.18,YE,1592843571
141,yerbogachen,61.28,108.01,287.99,85,Clear,2.1,RU,1592843562
142,thompson,55.74,-97.86,290.15,72,Clouds,1,CA,1592843413
143,contamana,-7.33,-75.02,305.49,49,Clouds,1.46,PE,1592843571
144,lorengau,-2.02,147.27,301.17,71,Clouds,1.71,PG,1592843571
145,ekhabi,53.51,142.97,276.88,94,Clouds,3.08,RU,1592843572
146,sorong,-0.88,131.25,299.08,87,Clouds,3.58,ID,1592843572
147,bathsheba,13.22,-59.52,305.15,62,Haze,10.3,BB,1592843572
148,ribeira brava,32.65,-17.07,297.15,60,Clouds,6.7,PT,1592843572
149,ayna,-12.65,-73.92,293.15,34,Clouds,0.5,PE,1592843572
150,russell,32.35,-85.2,304.15,62,Clouds,2.6,US,1592843572
151,husavik,66.04,-17.34,284.15,81,Rain,9.8,IS,1592843572
152,yanam,16.73,82.22,301.15,78,Clouds,1.5,IN,1592843572
154,volchikha,52.03,80.38,287.14,63,Clear,3.28,RU,1592843572
155,samarai,-10.62,150.67,299.55,85,Clouds,5.42,PG,1592843572
156,benghazi,32.12,20.07,296.22,73,Clear,5.44,LY,1592843572
157,vardo,70.37,31.11,279.15,81,Rain,11.3,NO,1592843572
158,vila velha,-20.33,-40.29,299.26,65,Clear,4.6,BR,1592843572
159,comendador,18.88,-71.7,307.16,33,Clouds,3.74,DO,1592843572
160,kropotkin,45.44,40.58,296.1,70,Rain,0.8,RU,1592843572
161,constitucion,-35.33,-72.42,283.66,87,Rain,3.88,CL,1592843573
163,semnan,35.57,53.4,296.91,32,Clear,5.6,IR,1592843573
164,rorvik,64.86,11.24,289.15,87,Clouds,6.2,NO,1592843573
165,arroio grande,-32.24,-53.09,288.15,91,Clouds,0.45,BR,1592843573
166,ascension,30.22,-90.9,298.15,94,Rain,4.35,US,1592843573
167,saint-denis,48.92,2.33,297.15,41,Clear,1.5,FR,1592843573
168,jamestown,42.1,-79.24,299.82,65,Clear,2.1,US,1592843573
169,chhindwara,22.07,78.93,299.91,69,Clouds,4.88,IN,1592843573
170,huilong,31.81,121.66,297.59,96,Rain,0.89,CN,1592843573
171,bom jesus da lapa,-13.26,-43.42,301.15,51,Clouds,4.6,BR,1592843510
172,sao joao da barra,-21.64,-41.05,303.15,40,Clear,2.1,BR,1592843573
173,ashbourne,53.51,-6.43,291.15,77,Clouds,5.7,IE,1592843573
174,srednekolymsk,67.45,153.68,284.76,60,Clouds,8.04,RU,1592843573
176,mount gambier,-37.83,140.77,284.15,100,Rain,8.2,AU,1592843574
177,evensk,61.95,159.23,288.34,62,Clouds,1.59,RU,1592843542
178,hobyo,5.35,48.53,299.81,72,Clear,11.96,SO,1592843574
179,kommunar,59.62,30.39,295.15,40,Clouds,3,RU,1592843574
181,manuk mangkaw,4.8,119.85,302.21,72,Clouds,2.99,PH,1592843574
182,handlova,48.73,18.76,294.15,64,Clouds,5.1,SK,1592843574
184,atambua,-9.11,124.89,294.26,87,Clouds,2.49,ID,1592843574
185,henties bay,-22.12,14.28,288.71,87,Clear,2.24,NA,1592843574
186,chuy,-33.7,-53.46,288.66,81,Clouds,2.81,UY,1592843574
187,nikolskoye,59.7,30.79,295.15,40,Clouds,3,RU,1592843574
188,saint george,37.1,-113.58,305.37,14,Clear,2.6,US,1592843574
189,mount hagen,-5.86,144.23,287.67,91,Clouds,0.42,PG,1592843575
190,mar del plata,-38,-57.56,285.15,76,Clouds,6.7,AR,1592843350
191,ixtepec,16.58,-95.1,307.86,48,Clouds,1.48,MX,1592843575
192,san antonio,29.42,-98.49,302.59,74,Clouds,3.1,US,1592843286
193,booue,-0.09,11.94,300.48,69,Clouds,0.61,GA,1592843575
194,brindisi,40.58,17.67,296.48,56,Clouds,11.3,IT,1592843575
195,rio grande,-32.03,-52.1,290.15,82,Clouds,3.1,BR,1592843393
196,baykit,61.67,96.37,292.5,53,Clouds,1.24,RU,1592843500
197,huarmey,-10.07,-78.15,293.5,67,Clouds,4.2,PE,1592843575
198,nizwa,22.93,57.53,309.13,26,Clouds,3.26,OM,1592843575
199,tuatapere,-46.13,167.68,277.04,83,Clouds,1.34,NZ,1592843575
200,matara,5.95,80.54,299.88,85,Rain,4.33,LK,1592843477
201,riyadh,24.69,46.72,308.15,11,Dust,6.7,SA,1592843344
202,san jose,37.34,-121.89,293.71,54,Clouds,0.99,US,1592843506
203,katsuura,35.13,140.3,293.15,86,Rain,1.34,JP,1592843536
204,watertown,42.37,-71.18,299.82,69,Clouds,3.36,US,1592843523
205,piotrkow trybunalski,51.41,19.7,293.15,86,Rain,6.71,PL,1592843322
206,umtata,-31.59,28.78,287.15,41,Clear,2.1,ZA,1592843575
207,ust-kulom,61.69,53.69,282.65,92,Clouds,2.59,RU,1592843575
208,kanniyakumari,8.08,77.57,301.11,71,Clouds,9.35,IN,1592843407
209,sistranda,63.73,8.83,289.15,87,Clouds,0.5,NO,1592843576
210,mama,58.31,112.9,287.64,69,Clouds,1.14,RU,1592843576
211,chernyshevskiy,63.01,112.47,286.75,84,Clear,1.29,RU,1592843576
212,adeje,28.12,-16.73,300.15,54,Clear,7.7,ES,1592843576
213,nishihara,26.18,127.76,300.15,88,Clouds,5.7,JP,1592843576
214,odesskoye,54.21,72.97,286.7,89,Clouds,2.62,RU,1592843576
215,synevyr,48.49,23.63,296.48,77,Clouds,1.34,UA,1592843576
216,nemuro,43.32,145.57,284.98,92,Clouds,4.96,JP,1592843547
217,yuancheng,36.65,107.79,291.67,57,Clouds,1.29,CN,1592843576
218,vostok,46.49,135.88,283.7,99,Clouds,1.32,RU,1592843576
219,cidreira,-30.18,-50.21,292.61,84,Clouds,2.17,BR,1592843370
220,tuktoyaktuk,69.45,-133.04,287.15,67,Clouds,2.1,CA,1592843576
221,marzuq,14.4,46.47,304.53,32,Clouds,3.41,YE,1592843577
222,pochutla,15.74,-96.47,304.26,66,Clouds,5.1,MX,1592843577
223,monrovia,6.3,-10.8,303.15,74,Clouds,5.1,LR,1592843577
224,carnarvon,-24.87,113.63,294.15,100,Clouds,5.7,AU,1592843577
226,walvis bay,-22.96,14.51,296.15,35,Clear,3.6,NA,1592843577
227,puteyets,65.17,57.09,280.2,88,Clouds,2.28,RU,1592843577
228,lake havasu city,34.48,-114.32,309.26,15,Clear,3.6,US,1592843577
229,linxia,35.6,103.21,287.91,69,Clouds,0.78,CN,1592843577
231,acapulco,16.86,-99.89,304.15,58,Clouds,2.95,MX,1592843556
232,mahebourg,-20.41,57.7,295.15,83,Clouds,4.6,MU,1592843577
233,lagoa,39.05,-27.98,292.6,91,Clouds,10.06,PT,1592843577
234,moerai,-22.43,-151.33,294.05,65,Clear,8.88,PF,1592843577
235,vestmannaeyjar,63.44,-20.27,284.15,81,Clouds,5.1,IS,1592843577
236,eregli,37.51,34.05,297.45,39,Clear,4.52,TR,1592843578
237,georgetown,5.41,100.34,299.15,100,Thunderstorm,1.5,MY,1592843439
239,kruisfontein,-34,24.73,285.67,72,Clear,1.38,ZA,1592843486
240,znamensk,48.58,45.73,296.85,32,Clouds,6.03,RU,1592843578
241,seoul,37.57,126.98,299.15,88,Clouds,0.5,KR,1592842784
242,torbay,47.67,-52.73,289.82,51,Clouds,5.7,CA,1592843540
243,olafsvik,64.89,-23.71,282.32,90,Rain,8.18,IS,1592843578
244,lichinga,-13.31,35.24,291.15,59,Clouds,2.1,MZ,1592843578
245,grindavik,63.84,-22.43,284.15,76,Clouds,6.7,IS,1592843578
246,yuncheng,35.02,110.99,294.58,75,Clouds,1.5,CN,1592843578
247,walla walla,46.06,-118.34,294.82,37,Clear,3.6,US,1592843293
248,ingham,42.6,-84.38,300.15,65,Clear,2.1,US,1592843578
249,erenhot,43.65,111.98,293.55,49,Rain,5.39,CN,1592843578
250,kawalu,-7.38,108.21,295.31,91,Clouds,0.64,ID,1592843578
251,pimentel,-6.84,-79.93,295.15,64,Clouds,2.1,PE,1592843578
252,cabedelo,-6.98,-34.83,302.15,58,Clouds,7.7,BR,1592843578
253,magdagachi,53.45,125.8,281.05,96,Clouds,1.2,RU,1592843579
254,kletskaya,49.31,43.06,294.44,57,Clouds,4.96,RU,1592843579
255,abu samrah,35.3,37.18,298.5,40,Clear,6.08,SY,1592843561
256,bonthe,7.53,-12.51,301,78,Rain,4.94,SL,1592843579
258,lang son,21.83,106.73,299.21,87,Clouds,2.19,VN,1592843579
259,alamosa,37.47,-105.87,294.15,22,Clear,1.79,US,1592843579
260,elkhart,41.58,-85.83,302.04,61,Clouds,3.1,US,1592843554
261,ongandjera,-17.88,15.07,291.78,27,Clear,2.47,NA,1592843579
262,saldanha,-33.01,17.94,290.15,72,Clouds,2.6,ZA,1592843579
263,chumikan,54.72,135.31,277.33,95,Clouds,1,RU,1592843579
264,valmiera,57.54,25.43,298.15,48,Clouds,1.79,LV,1592843579
265,ahipara,-35.17,173.17,287.2,86,Clouds,4.8,NZ,1592843579
266,puerto carreno,6.19,-67.49,301.15,74,Clouds,1,CO,1592843579
267,victoria,22.29,114.16,303.15,74,Clouds,4.47,HK,1592843480
268,lagos,6.58,3.75,296.15,100,Thunderstorm,1,NG,1592843428
269,hofu,34.05,131.57,294.26,81,Clear,0.45,JP,1592843580
270,belem de sao francisco,-8.75,-38.97,302.3,50,Clouds,7.86,BR,1592843580
271,esmeralda,21.85,-78.12,304.15,74,Clouds,4.6,CU,1592843580
272,sesori,13.72,-88.37,303.53,61,Clouds,0.66,SV,1592843580
273,zambezi,-13.54,23.1,289.84,41,Clear,1.5,ZM,1592843580
274,suntar,62.14,117.63,287.81,58,Clouds,3.05,RU,1592843580
275,lavrentiya,65.58,-171,284.78,63,Clouds,3.61,RU,1592843580
276,portland,45.52,-122.68,291.48,72,Clouds,2.1,US,1592843546
277,richards bay,-28.78,32.04,290.92,76,Clear,2.85,ZA,1592843580
278,saint-marc,19.11,-72.69,304.03,58,Clouds,2.66,HT,1592843580
279,namibe,-15.2,12.15,299.15,50,Clear,5.1,AO,1592843580
280,algiers,36.75,3.04,300.15,54,Clear,9.3,DZ,1592843345
281,necochea,-38.55,-58.74,284.26,84,Clouds,3.58,AR,1592843580
282,dawei,14.08,98.2,299.88,84,Clear,0.97,MM,1592843580
283,castro,-24.79,-50.01,296.52,43,Clear,1.43,BR,1592843580
284,esmeraldas,-19.76,-44.31,299.15,40,Clear,4.1,BR,1592843580
285,airai,-8.93,125.41,287.33,100,Clouds,1.69,TL,1592843581
286,mangrol,21.12,70.12,302.82,78,Clouds,5.55,IN,1592843581
287,komsomolskiy,40.43,71.72,303.15,22,Clouds,2.1,UZ,1592843581
288,porto walter,-8.27,-72.74,307.15,44,Clouds,1.03,BR,1592843581
289,ulaanbaatar,47.91,106.88,287.15,67,Clouds,1,MN,1592843561
290,hauge,58.34,6.28,290.37,78,Clear,6.12,NO,1592843581
291,nuevo progreso,23.17,-97.95,303.15,58,Clouds,3.58,MX,1592843581
292,doha,25.29,51.53,308.15,24,Clear,7.2,QA,1592843331
293,puerto narino,-3.77,-70.38,299.15,88,Thunderstorm,1,CO,1592843581
294,roma,43.21,-75.46,304.15,48,Clouds,2.6,US,1592843284
295,touros,-5.2,-35.46,301.15,65,Rain,5.7,BR,1592843581
296,praia da vitoria,38.73,-27.07,297.15,64,Clouds,7.02,PT,1592843581
297,auki,-8.77,160.7,298.63,82,Clouds,0.91,SB,1592843581
298,summerside,46.4,-63.79,297.04,70,Clear,1.34,CA,1592843457
299,yulara,-25.24,130.99,281.15,76,Clear,3.6,AU,1592843534
300,kaabong,3.48,34.15,291.6,81,Clouds,1.06,UG,1592843581
301,elk river,45.3,-93.57,295.93,49,Clouds,0.45,US,1592843571
302,sembe,1.65,14.58,297.15,88,Rain,0.54,CG,1592843582
303,lasa,46.62,10.7,297.04,59,Clouds,4.1,IT,1592843559
304,grafton,42.21,-71.69,297.04,83,Clouds,2.1,US,1592843383
306,brownwood,31.71,-98.99,299.15,61,Clouds,8.7,US,1592843582
307,icatu,-2.78,-44.07,304.15,58,Clouds,3.1,BR,1592843582
309,sao filipe,14.9,-24.5,299.7,69,Clouds,4.98,CV,1592843527
310,waycross,31.21,-82.35,305.93,43,Clouds,3.1,US,1592843582
311,copiapo,-27.37,-70.33,287.15,76,Clouds,3.6,CL,1592843582
312,agirish,61.92,63.02,282.2,61,Clouds,1.33,RU,1592843582
313,rexburg,43.83,-111.79,292.59,52,Clear,0.86,US,1592843582
314,deer lake,49.17,-57.43,293.15,64,Clouds,2.6,CA,1592843424
315,le mans,48,0.2,298.15,33,Clear,1.5,FR,1592843582
316,rupert,42.62,-113.68,293.15,45,Clear,4.6,US,1592843460
317,muros,42.78,-9.06,304.26,54,Clouds,5.1,ES,1592843582
318,ponta delgada,37.73,-25.67,294.15,83,Clouds,5.1,PT,1592843566
319,dubna,56.73,37.17,290.48,69,Clouds,2.4,RU,1592843583
320,ko samui,9.54,99.94,300.15,94,Clouds,3.55,TH,1592843346
321,san rafael,-34.62,-68.33,288.49,33,Clear,2.96,AR,1592843431
322,iqaluit,63.75,-68.51,283.15,57,Clouds,2.1,CA,1592843583
323,nhulunbuy,-12.23,136.77,297.15,83,Clouds,4.6,AU,1592843583
324,zanjan,36.67,48.48,297.15,36,Clouds,8.2,IR,1592843428
325,alamor,-4.02,-80.02,299.15,83,Rain,1.5,EC,1592843583
326,karratha,-20.74,116.85,292.63,60,Clear,2.59,AU,1592843583
327,shasta lake,40.68,-122.37,304.15,25,Clear,6.2,US,1592843583
328,nongstoin,25.52,91.27,292.89,98,Clouds,2.1,IN,1592843583
329,south river,40.45,-74.39,304.82,59,Clear,0.89,US,1592843362
330,kirovskiy,45.09,133.51,288.31,96,Clouds,0.98,RU,1592843583
331,chittaurgarh,24.88,74.63,306.18,41,Rain,0.92,IN,1592843583
332,marawi,8,124.29,298.15,89,Clouds,2.68,PH,1592843583
334,camacari,-12.7,-38.32,298.15,94,Mist,5.1,BR,1592843448
335,krasnik,50.92,22.23,293.15,100,Clouds,3.1,PL,1592843584
336,palmer,42.16,-72.33,305.37,55,Clouds,2.1,US,1592843459
338,xuddur,4.12,43.89,300.52,58,Clouds,7.26,SO,1592843584
339,kanungu,-0.96,29.79,290,86,Rain,1.08,UG,1592843584
340,santa isabel do rio negro,-0.41,-65.02,302.2,74,Rain,1.87,BR,1592843498
341,inhambane,-23.86,35.38,294.15,83,Clouds,3.64,MZ,1592843584
342,hoddesdon,51.76,-0.01,296.48,46,Clouds,6.2,GB,1592843584
343,dingle,11,122.67,299.14,86,Clouds,1.5,PH,1592843570
344,kavaratti,10.57,72.64,301.04,76,Rain,1.37,IN,1592843585
345,lewistown,40.6,-77.57,303.15,62,Clear,2.89,US,1592843585
346,camacha,33.08,-16.33,296.15,73,Clouds,7.7,PT,1592843585
347,turukhansk,65.82,87.98,286.74,77,Clouds,4.86,RU,1592843585
348,leshukonskoye,64.9,45.76,284.65,52,Clouds,4.5,RU,1592843585
349,carutapera,-1.2,-46.02,303.12,67,Rain,3.62,BR,1592843585
350,grand gaube,-20.01,57.66,295.37,77,Clear,2.68,MU,1592843586
351,miles city,46.41,-105.84,293.15,64,Clouds,2.1,US,1592843412
352,sinnai,39.3,9.2,304.15,37,Clouds,4.1,IT,1592843586
353,koslan,63.46,48.9,287.41,73,Rain,3.26,RU,1592843586
354,terracina,41.29,13.22,302.15,54,Clouds,3.1,IT,1592843586
355,tebingtinggi,3.33,99.16,297.15,100,Clouds,2.1,ID,1592843586
356,penzance,50.12,-5.54,292.59,93,Clouds,9.8,GB,1592843586
357,urumqi,43.8,87.6,294.15,28,Clear,2,CN,1592843586
358,pontalina,-17.52,-49.45,300.34,30,Clouds,3.14,BR,1592843586
359,melilla,35.29,-2.94,300.15,73,Clouds,4.1,ES,1592843586
360,nanortalik,60.14,-45.24,281.91,73,Clouds,1.15,GL,1592843345
361,skibotn,69.39,20.27,286.15,76,Clouds,3.1,NO,1592843586
362,el bagre,7.59,-74.81,308.22,50,Rain,0.12,CO,1592843450
363,ibra,22.69,58.53,306.21,46,Clouds,2.75,OM,1592843587
364,asau,46.43,26.4,295.37,100,Thunderstorm,6.2,RO,1592843587
365,tigil,57.8,158.67,281.4,71,Clouds,0.81,RU,1592843587
366,macheng,31.18,115.03,295.87,96,Rain,1.23,CN,1592843587
367,chhagalnaiya,23.03,91.51,300.4,86,Clouds,3.41,BD,1592843587
368,zyryanka,65.75,150.85,294.5,51,Clear,0.79,RU,1592843587
369,eschwege,51.18,10.07,295.37,63,Clouds,0.45,DE,1592843587
370,faanui,-16.48,-151.75,297.97,78,Clouds,9.95,PF,1592843587
371,aklavik,68.22,-135.01,289.15,59,Clouds,2.1,CA,1592843587
372,rayagada,19.17,83.42,299.6,75,Clouds,1.06,IN,1592843588
373,wiener neudorf,48.08,16.32,299.26,44,Clouds,7.7,AT,1592843588
374,maua,-23.67,-46.46,299.26,34,Clear,1.5,BR,1592843588
376,norman wells,65.28,-126.83,284.15,100,Drizzle,6.2,CA,1592843588
377,ostersund,63.18,14.64,298.15,29,Clouds,1.5,SE,1592843413
378,brigantine,39.41,-74.36,303.71,54,Clouds,3.1,US,1592843588
379,cayenne,4.93,-52.33,305.15,59,Rain,4.6,GF,1592843529
380,mehamn,71.04,27.85,279.15,81,Clouds,5.1,NO,1592843547
381,dongzhen,22.38,110.94,299.04,92,Clouds,1.58,CN,1592843588
382,la ronge,55.1,-105.28,294.15,40,Clouds,4.1,CA,1592843588
384,port-cartier,50.03,-66.87,288.71,82,Clouds,5.7,CA,1592843589
385,sibolga,1.74,98.78,298.24,79,Rain,1.1,ID,1592843589
386,ilulissat,69.22,-51.1,282.15,61,Clouds,2.6,GL,1592843589
387,trinidad,-14.83,-64.9,302.15,70,Clouds,3.1,BO,1592843589
388,fortuna,40.6,-124.16,287.59,100,Clouds,1.5,US,1592843589
389,vila,42.03,-8.16,307.59,55,Clouds,1.5,PT,1592843416
390,mumford,5.26,-0.76,299.3,81,Clouds,5.72,GH,1592843589
391,carbonia,39.17,8.52,304.15,31,Clouds,6.2,IT,1592843589
392,naduvattam,11.48,76.57,286.66,100,Clouds,2.01,IN,1592843589
393,hauterive,46.09,3.45,299.15,41,Clouds,4.1,FR,1592843589
395,pingliang,35.54,106.69,288.98,75,Clouds,1.81,CN,1592843589
396,mahajanga,-15.72,46.32,300.15,54,Clear,1.5,MG,1592843589
397,lompoc,34.64,-120.46,287.15,93,Clouds,2.1,US,1592843590
398,oranjemund,-28.55,16.43,287.36,81,Clear,3.46,NA,1592843590
399,kununurra,-15.77,128.73,294.15,27,Clear,3.6,AU,1592843590
400,cap malheureux,-19.98,57.61,295.37,77,Clear,2.68,MU,1592843463
401,yeppoon,-23.13,150.73,283.15,87,Clear,2.4,AU,1592843590
403,ust-karsk,52.7,118.81,286.8,73,Clouds,1.21,RU,1592843590
404,lobito,-12.35,13.55,296.13,81,Clear,1.27,AO,1592843590
405,luderitz,-26.65,15.16,289.15,77,Clear,5.1,NA,1592843590
406,northam,51.03,-4.22,292.59,67,Clear,5.81,GB,1592843590
407,ler,8.3,30.14,299.55,62,Clouds,0.74,SS,1592843590
408,qaqortoq,60.72,-46.03,294.15,28,Clouds,3.6,GL,1592843344
409,hammerfest,70.66,23.68,281.15,75,Clouds,4.6,NO,1592843590
410,westport,41.14,-73.36,304.26,61,Clear,4.6,US,1592843482
412,alyangula,-13.85,136.42,295.15,64,Clear,1.5,AU,1592843591
413,bow island,49.87,-111.37,294.26,60,Clouds,3.6,CA,1592843591
414,culfa,38.96,45.63,302.15,25,Clouds,2.1,AZ,1592843591
415,kirkuk,35.47,44.39,303.31,17,Clear,3.14,IQ,1592843591
416,coihaique,-45.58,-72.07,278.15,86,Clouds,2.1,CL,1592843591
417,angra dos reis,-23.01,-44.32,304.15,40,Clear,4.1,BR,1592843591
418,safaga,26.73,33.94,313.15,12,Clear,3.1,EG,1592843591
419,kudahuvadhoo,2.67,72.89,302.09,75,Clouds,4.52,MV,1592843591
420,belaya gora,68.53,146.42,289.71,52,Clouds,6.5,RU,1592843591
421,bengkulu,-3.8,102.27,297.69,91,Rain,3.8,ID,1592843592
422,mala,-12.66,-76.63,293.33,63,Clouds,2.81,PE,1592843592
424,mae hong son,19.3,97.97,298.54,82,Rain,0.7,TH,1592843592
425,palu,-0.89,119.87,297.69,79,Rain,1.17,ID,1592843592
426,sakakah,29.97,40.21,311.15,10,Clear,5.7,SA,1592843592
427,sagua la grande,22.81,-80.08,305.15,59,Clouds,3.6,CU,1592843592
428,los llanos de aridane,28.66,-17.92,298.15,65,Clouds,6.7,ES,1592843534
429,asyut,27.18,31.18,313.15,19,Clear,7.7,EG,1592843592
430,itaituba,-4.28,-55.98,308.15,53,Clouds,3.6,BR,1592843592
431,dicabisagan,17.08,122.42,300.4,84,Clouds,2.73,PH,1592843592
432,siilinjarvi,63.08,27.67,296.15,27,Clear,3.6,FI,1592843401
433,beyneu,45.32,55.2,303.64,15,Clouds,1.41,KZ,1592843592
434,san andres,12.58,-81.7,304.15,70,Clouds,6.7,CO,1592843593
435,klaksvik,62.23,-6.59,283.15,87,Rain,13.9,FO,1592843593
436,lake city,30.19,-82.64,304.82,62,Clouds,3.1,US,1592843305
437,pangai,-19.8,-174.35,298.52,91,Clouds,4.03,TO,1592843593
438,tulskiy,44.51,40.18,293.61,83,Clouds,1.6,RU,1592843593
439,imbituba,-28.24,-48.67,298.15,69,Clear,4.6,BR,1592843593
440,itarema,-2.92,-39.92,302.88,61,Clear,5.03,BR,1592843593
441,goderich,43.75,-81.72,298.71,73,Clouds,2.33,CA,1592843593
442,aventura,25.96,-80.14,305.93,62,Clouds,5.7,US,1592843408
443,ampanihy,-24.7,44.75,292.23,86,Clouds,3.84,MG,1592843593
444,baturaja,-4.13,104.17,296.32,96,Rain,1.15,ID,1592843593
445,kaduna,10.52,7.44,301.42,63,Rain,3.36,NG,1592843593
446,villazon,-22.09,-65.59,287.33,31,Clear,1.85,BO,1592843593
447,san cristobal,7.77,-72.22,302.15,66,Clouds,5.1,VE,1592843593
448,tandalti,13.02,31.87,309.91,19,Clouds,1.26,SD,1592843593
449,codrington,-38.27,141.97,286.98,86,Rain,11.82,AU,1592843307
450,berlevag,70.86,29.09,278.73,76,Clouds,3.92,NO,1592843594
451,yumen,40.28,97.2,294.93,21,Clear,4.76,CN,1592843594
452,campbell river,50.02,-125.24,288.15,77,Clouds,3.1,CA,1592843594
453,manta,-0.95,-80.73,299.15,78,Clouds,3.6,EC,1592843407
454,ugoofaaru,5.67,73,302.07,78,Clouds,5.87,MV,1592843594
456,tucurui,-3.77,-49.67,304.16,52,Clouds,1.98,BR,1592843594
457,bambanglipuro,-7.95,110.28,298.25,83,Clouds,3.87,ID,1592843594
458,nome,64.5,-165.41,287.04,76,Clear,2.06,US,1592843594
459,saint-georges,12.06,-61.75,304.15,70,Dust,7.7,GD,1592843469
460,mananara,-16.17,49.77,293.83,89,Rain,2.58,MG,1592843594
461,antalaha,-14.9,50.28,294.75,81,Clouds,3.97,MG,1592843594
462,meulaboh,4.14,96.13,298.02,90,Rain,0.93,ID,1592843481
463,shimoda,34.67,138.95,289.82,92,Clouds,0.89,JP,1592843595
464,barguzin,53.62,109.62,286.22,76,Rain,1.21,RU,1592843595
465,shubarkuduk,49.14,56.49,294.17,37,Clear,5.34,KZ,1592843595
466,kushima,31.46,131.23,294.82,83,Clear,1.79,JP,1592843595
467,rangapara,26.82,92.65,299.89,88,Rain,1.3,IN,1592843595
468,poum,-20.23,164.02,295.4,78,Clouds,4.63,NC,1592843595
469,flinders,-34.58,150.86,284.26,61,Clouds,3.13,AU,1592843539
470,santa cruz,-17.8,-63.17,294.15,94,Clouds,3.1,BO,1592843439
471,kharovsk,59.96,40.19,289.46,66,Clouds,1.38,RU,1592843596
472,syracuse,37.09,15.28,298.15,50,Clouds,5.1,IT,1592843522
474,yar-sale,66.83,70.83,280.04,69,Clouds,5.71,RU,1592843596
475,caninde de sao francisco,-9.66,-37.79,302.28,54,Clouds,4.45,BR,1592843596
476,aykhal,66,111.5,291.15,63,Rain,3,RU,1592843596
477,villa carlos paz,-31.42,-64.5,289.15,36,Clouds,5.7,AR,1592843596
480,cururupu,-1.83,-44.87,304.39,52,Clouds,3.28,BR,1592843596
481,longyearbyen,78.22,15.64,283.15,61,Clouds,3.1,SJ,1592843596
482,zubtsov,56.18,34.59,291.19,75,Clouds,2.38,RU,1592843586
483,coquimbo,-29.95,-71.34,287.15,82,Clouds,1.5,CL,1592843471
484,bahile,10,118.79,301.15,83,Clouds,2.1,PH,1592843597
485,stellenbosch,-33.93,18.87,290.37,93,Clouds,4.6,ZA,1592843300
486,bardiyah,31.76,25.09,295.82,69,Clear,4.26,LY,1592843597
487,tacuarembo,-31.73,-55.98,292.27,81,Clouds,4.09,UY,1592843306
488,hare bay,48.85,-54.01,289.15,72,Clouds,3.1,CA,1592843597
489,tromso,69.65,18.96,286.15,58,Clouds,1.5,NO,1592843461
490,ploemeur,47.73,-3.43,294.82,52,Clear,2.1,FR,1592843597
492,new amsterdam,6.25,-57.52,301.33,81,Rain,2.93,GY,1592843597
493,avera,33.19,-82.53,304.15,66,Clear,2.1,US,1592843597
494,kodinar,20.79,70.7,302.56,78,Rain,5.3,IN,1592843597
495,banda aceh,5.56,95.32,299.47,81,Clouds,7.79,ID,1592843523
496,mecca,21.43,39.83,306.8,29,Clouds,2.56,SA,1592843597
497,hay river,60.82,-115.8,294.15,37,Clouds,4.1,CA,1592843597
498,abbeville,50.1,1.83,294.26,63,Clouds,2.69,FR,1592843597
500,bilibino,68.05,166.44,281.33,67,Clouds,3.73,RU,1592843597
502,port hardy,50.7,-127.42,285.15,93,Rain,4.1,CA,1592843466
503,kenai,60.55,-151.26,285.15,66,Clear,4.1,US,1592843493
504,biak,-0.91,122.88,298,80,Clouds,3.53,ID,1592843598
505,itoman,26.12,127.67,300.15,88,Clouds,5.7,JP,1592843598
506,luena,-11.78,19.92,288.16,40,Clear,1.1,AO,1592843598
507,aiken,33.58,-81.6,304.26,48,Clear,3.6,US,1592843598
508,elizabeth city,36.29,-76.25,305.37,66,Clear,2.6,US,1592843598
509,arlit,18.74,7.39,315.03,6,Clear,4.65,NE,1592843598
510,saint-pierre,-21.34,55.48,296.15,73,Clouds,1,RE,1592843404
511,ban nahin,18.24,104.21,300.62,76,Clouds,0.72,LA,1592843598
513,flin flon,54.77,-101.86,294.15,43,Clouds,2.1,CA,1592843598
514,lima,-12.04,-77.03,291.15,72,Clouds,3.1,PE,1592843224
515,ossora,59.24,163.07,286.11,74,Clear,0.22,RU,1592843599
516,san pedro,14.35,121.02,302.15,83,Clouds,2.1,PH,1592843488
517,makakilo city,21.35,-158.09,297.15,78,Clear,1.5,US,1592843599
518,talnakh,69.49,88.4,288.15,58,Clouds,3,RU,1592843585
519,mamallapuram,12.63,80.17,301.15,78,Thunderstorm,4.1,IN,1592843599
520,wanning,18.8,110.4,300.92,89,Clouds,4.49,CN,1592843599
521,gopalpur,19.27,84.92,301.89,77,Clouds,3.97,IN,1592843599
522,tessalit,20.2,1.01,315.54,6,Clear,3.11,ML,1592843599
523,carleton place,45.13,-76.15,303.71,66,Clouds,2.16,CA,1592843599
524,marystown,47.17,-55.15,285.56,87,Clouds,4.78,CA,1592843599
525,selaphum,16.03,103.94,301.74,71,Clouds,3.18,TH,1592843599
526,solnechnyy,50.72,136.63,280.58,93,Rain,2.61,RU,1592843599
528,kyren,51.68,102.14,287.63,78,Rain,0.69,RU,1592843599
529,beloha,-25.17,45.05,291.58,92,Clouds,3.01,MG,1592843599
530,leningradskiy,69.38,178.42,273.72,93,Clouds,6.07,RU,1592843600
531,adre,13.47,22.2,306.18,20,Clouds,2.87,TD,1592843600
532,buin,-33.73,-70.75,283.15,93,Mist,1.88,CL,1592843600
533,salalah,17.02,54.09,302.15,89,Clouds,3.1,OM,1592843529
534,san carlos de bariloche,-41.15,-71.31,276.15,93,Rain,8.7,AR,1592843600
535,loanda,-8.84,13.23,297.15,73,Clear,4.6,AO,1592843570
536,rawson,-43.3,-65.1,288.47,37,Clouds,10.35,AR,1592843600
537,ginda,30.69,78.49,293.09,77,Rain,1.26,IN,1592843600
538,monterey,36.25,-121.25,302.04,77,Clouds,1.41,US,1592843600
539,smoky lake,54.12,-112.47,295.37,65,Rain,0.89,CA,1592843600
540,carballo,43.21,-8.69,300.93,82,Clouds,4.02,ES,1592843600
541,kendari,-3.94,122.5,295.93,92,Clear,1.5,ID,1592843600
543,son la,21.32,103.9,296.46,83,Rain,0.84,VN,1592843600
544,emba,48.83,58.14,294.4,37,Clear,7.14,KZ,1592843601
545,plymouth,41.83,-70.83,300.15,78,Clouds,4.6,US,1592843601
547,broceni,56.7,22.53,294.79,76,Clouds,1.35,LV,1592843601
548,najran,17.49,44.13,309.15,13,Clouds,3.1,SA,1592843601
549,prince rupert,54.32,-130.32,285.15,81,Clouds,7.2,CA,1592843601
550,tambopata,-12.73,-69.18,297.15,94,Clouds,4.1,PE,1592843601
551,athabasca,54.72,-113.29,293.04,63,Rain,1.51,CA,1592843601
552,gamba,-2.65,10,296.4,84,Clouds,3.89,GA,1592843493
553,eureka,40.8,-124.16,287.59,100,Mist,2.1,US,1592843315
554,nichinan,31.6,131.37,294.82,83,Clear,1.79,JP,1592843601
555,naifaru,5.44,73.37,301.96,79,Clouds,6.43,MV,1592843601
556,hamilton,39.18,-84.53,300.37,65,Clouds,4.1,US,1592843601
557,krasnoselkup,65.7,82.47,283.76,77,Clear,9.53,RU,1592843602
558,santo augusto,-27.85,-53.78,299.15,57,Clouds,4.1,BR,1592843602
559,taoudenni,22.68,-3.98,319.58,5,Clouds,7.55,ML,1592843602
560,zheleznodorozhnyy,55.75,38,295.15,43,Clear,1,RU,1592843602
561,belyy yar,53.6,91.39,285.15,87,Clouds,2,RU,1592843602
562,ducheng,23.24,111.53,299.35,92,Clouds,1.65,CN,1592843602
563,dakar,14.69,-17.44,302.15,70,Clouds,5.1,SN,1592843326
564,byron bay,-28.65,153.62,284.26,66,Clear,3.1,AU,1592843372
565,galle,6.04,80.22,300.8,84,Rain,5.9,LK,1592843602
566,alice springs,-23.7,133.88,277.15,69,Clear,2.04,AU,1592843602
567,havre-saint-pierre,50.23,-63.6,290.15,77,Clouds,1,CA,1592843603
568,denpasar,-8.65,115.22,300.15,100,Clouds,4.1,ID,1592843603
569,tura,25.52,90.22,297.63,94,Rain,2.41,IN,1592843603
570,markova,48.68,24.41,292.15,93,Thunderstorm,3,UA,1592843603
573,marietta,33.95,-84.55,303.71,58,Clouds,1.5,US,1592843406
574,vysotsk,60.63,28.57,295.15,37,Clear,2.1,RU,1592843603
575,worland,44.02,-107.96,294.82,55,Clear,1.5,US,1592843603
576,phek,25.67,94.5,290.65,100,Rain,1,IN,1592843603
577,fairbanks,64.84,-147.72,284.15,93,Clouds,4.6,US,1592843603
578,labrea,-7.26,-64.8,306.29,44,Clouds,1.55,BR,1592843603
579,mao,39.89,4.27,299.15,50,Clear,9.8,ES,1592843379
580,sungairaya,0.7,108.9,297.68,88,Clouds,1.35,ID,1592843603
581,kalmunai,7.42,81.82,302.17,77,Clouds,0.37,LK,1592843475
582,bakchar,57.02,82.07,286.3,95,Rain,1.37,RU,1592843603
583,pointe-noire,-4.78,11.86,300.15,74,Clouds,4.1,CG,1592843603
584,manjacaze,-24.71,33.88,289.76,79,Clear,1.66,MZ,1592843604
585,jasper,37.2,-94.35,299.15,65,Clear,4.1,US,1592843604
586,mount isa,-20.73,139.5,285.15,50,Clear,3.6,AU,1592843554
587,yauya,-8.98,-77.3,289.09,38,Clear,1.95,PE,1592843604
588,pacific grove,36.62,-121.92,287.15,87,Clouds,1.89,US,1592843604
589,redmond,47.67,-122.12,291.48,78,Clouds,1.11,US,1592843570
590,kashima,33.11,130.09,295.15,88,Clear,2.6,JP,1592843604
591,puerto baquerizo moreno,-0.9,-89.6,296.15,88,Clouds,5.7,EC,1592843604
592,nikki,9.94,3.21,302.02,70,Clouds,2.32,BJ,1592843604
593,epe,6.58,3.98,299.26,87,Rain,2.14,NG,1592843604
594,isangel,-19.55,169.27,297.15,83,Clouds,5.1,VU,1592843604
595,beidao,34.57,105.89,291.35,71,Clouds,0.51,CN,1592843604
597,shingu,33.73,135.98,292.73,81,Clouds,1.89,JP,1592843604
598,omurtag,43.1,26.42,295.15,60,Rain,4.1,BG,1592843604
599,yakeshi,49.28,120.73,285.09,86,Clouds,4.3,CN,1592843605
600,tutoia,-2.76,-42.27,303.91,58,Clouds,2.25,BR,1592843605
601,burns lake,54.23,-125.75,287.4,54,Clouds,3.06,CA,1592843466
602,kaili,-3.46,120.21,293.21,95,Clouds,0.8,ID,1592843605
603,ancud,-41.87,-73.82,284.26,81,Clouds,2.1,CL,1592843520
604,roald,62.58,6.13,290.15,72,Clouds,1.5,NO,1592843605
605,manzhouli,49.6,117.43,287.83,87,Rain,4.91,CN,1592843605
606,sur,22.57,59.53,303.4,71,Clouds,3.98,OM,1592843605
607,tikhvin,59.65,33.53,293.48,50,Clear,0.96,RU,1592843605
609,vao,-22.67,167.48,295.26,70,Clouds,4.17,NC,1592843466
610,tsabong,-26.02,22.4,286.19,38,Clear,1.73,BW,1592843605
611,amposta,40.71,0.58,299.82,55,Clear,3.13,ES,1592843605
612,batemans bay,-35.72,150.18,279.82,94,Clouds,2.86,AU,1592843605
613,college,64.86,-147.8,284.15,87,Mist,2.6,US,1592843605
614,obertyn,48.7,25.17,295.93,93,Thunderstorm,3,UA,1592843606
615,inirida,3.87,-67.92,300.94,87,Rain,1.17,CO,1592843606
616,sangmelima,2.93,11.98,295.99,90,Rain,0.87,CM,1592843606
617,kahului,20.89,-156.47,297.15,64,Clouds,4.6,US,1592843606
618,bilma,18.69,12.92,312.56,7,Clear,1.67,NE,1592843606
619,atasu,48.68,71.64,294.44,24,Clouds,3.21,KZ,1592843606
620,la rioja,42.25,-2.5,304.15,25,Clouds,2.6,ES,1592843606
622,sergeyevka,53.88,67.42,283.26,78,Clear,3.93,KZ,1592843606
623,valdivia,-39.81,-73.25,282.15,93,Rain,1.5,CL,1592843606
625,noyabrsk,63.2,75.45,281.75,86,Clouds,2.94,RU,1592843606
626,haines junction,60.75,-137.51,282.91,50,Clouds,2.82,CA,1592843606
627,jaguarari,-10.26,-40.2,298.86,57,Clouds,5.95,BR,1592843607
628,bahia blanca,-38.72,-62.27,286.87,38,Clouds,5.82,AR,1592843607
629,gravdal,68.12,13.5,296.15,46,Clouds,3.6,NO,1592843607
630,mtwara,-10.27,40.18,299.15,74,Clouds,6.7,TZ,1592843607
631,nola,40.92,14.53,298.71,50,Clouds,1.34,IT,1592843607
632,svetlogorsk,52.63,29.73,293.08,93,Rain,4.44,BY,1592843607
633,mogadishu,2.04,45.34,299.2,84,Clouds,8.37,SO,1592843607
634,neuquen,-38.95,-68.06,287.15,37,Clouds,4.1,AR,1592843607
635,naze,28.37,129.48,298.15,88,Clouds,2.6,JP,1592843607
636,tairua,-37.02,175.85,285.37,81,Clouds,0.45,NZ,1592843607
637,umm kaddadah,13.6,26.69,310.41,17,Clear,1.2,SD,1592843607
638,curuca,-0.73,-47.85,301.97,85,Rain,1.13,BR,1592843607
639,cockburn town,21.46,-71.14,304.15,70,Clouds,7.2,TC,1592843377
640,margate,51.38,1.39,294.82,49,Clear,2.24,GB,1592843537
641,okato,-39.2,173.88,282.59,79,Clear,4.02,NZ,1592843608
642,kibala,9.11,18.35,305.15,35,Clouds,2.1,TD,1592843608
643,poso,-1.4,120.75,298.5,76,Clouds,2.6,ID,1592843608
