City,Lat,Lng,Max Temp,Humidity,Cloudiness,Wind Speed,Country,Date
rikitea,-23.12,-134.97,70.26800000000009,52,100,8.187186828919113,PF,1593015836
olafsvik,64.89,-23.71,52.807999999999936,75,82,9.864889047959915,IS,1593015867
carnarvon,-24.87,113.63,57.19999999999999,93,0,8.05297065139585,AU,1593015847
iqaluit,63.75,-68.51,42.799999999999955,87,75,4.6975662133142455,CA,1593015852
santo augusto,-27.85,-53.78,73.382,60,6,16.95597709377237,BR,1593016069
vardo,70.37,31.11,49.99999999999994,93,75,5.8160343593414465,NO,1593015848
nome,64.5,-165.41,39.99199999999996,69,1,9.171438797423049,US,1593015878
avarua,-21.21,-159.78,73.39999999999992,94,34,3.3554044380816035,CK,1593015845
xining,36.62,101.77,56.87600000000003,54,9,0.5592340730136006,CN,1593015858
sao joao da barra,-21.64,-41.05,80.59999999999997,39,79,11.40837508947745,BR,1593015850
swan hill,-35.34,143.55,47.62399999999997,88,25,3.78042233357194,AU,1593016069
yellowknife,62.46,-114.35,66.9919999999999,55,75,8.05297065139585,CA,1593015373
new norfolk,-42.78,147.06,53.00600000000003,93,94,0.35790980672870437,AU,1593015851
albany,42.6,-73.97,80.00600000000003,48,53,8.67931281317108,US,1593015601
meulaboh,4.14,96.13,79.05200000000008,81,80,4.429133858267717,ID,1593015842
punta arenas,-53.15,-70.92,39.19999999999993,80,90,17.2244094488189,CL,1593015581
barrow,71.29,-156.79,30.199999999999932,92,90,5.8160343593414465,US,1593015638
abu kamal,34.45,40.92,93.27199999999999,11,0,13.354509663564782,SY,1593016070
ust-tsilma,65.44,52.15,43.69999999999993,93,100,7.941123836793128,RU,1593016070
severo-kurilsk,50.68,156.12,46.615999999999985,84,16,5.793664996420902,RU,1593015870
cape town,-33.93,18.42,60.99799999999999,77,0,9.171438797423049,ZA,1593015495
busselton,-33.65,115.33,53.00600000000003,67,100,5.748926270579814,AU,1593015836
sabang,5.89,95.32,83.51600000000002,72,45,5.547602004294918,ID,1593016070
hobart,-42.88,147.33,53.00600000000003,93,90,3.3554044380816035,AU,1593015836
kaitangata,-46.28,169.85,48.00200000000001,92,100,8.00823192555476,NZ,1593015842
mataura,-46.19,168.86,43.14199999999994,92,78,4.071224051539012,NZ,1593015836
ushuaia,-54.8,-68.3,35.599999999999966,89,75,4.6975662133142455,AR,1593015580
vaini,-21.2,-175.2,69.80000000000001,94,75,3.3554044380816035,TO,1593015842
arraial do cabo,-22.97,-42.03,82.39999999999992,39,56,19.4613457408733,BR,1593015842
souillac,-20.52,57.52,71.59999999999997,83,40,10.28990694345025,MU,1593015865
karratha,-20.74,116.85,67.83800000000002,77,0,1.096098783106657,AU,1593015864
dukat,62.55,155.55,53.29400000000004,47,59,3.1093414459556192,RU,1593016071
comodoro rivadavia,-45.87,-67.5,39.19999999999993,51,10,9.171438797423049,AR,1593015792
bethel,41.37,-73.41,82.00399999999996,54,1,10.28990694345025,US,1593015842
provideniya,64.38,-173.3,37.14799999999997,76,89,4.272548317823908,RU,1593015843
bubaque,11.28,-15.83,83.12000000000006,77,30,9.260916249105225,GW,1593016071
ancud,-41.87,-73.82,42.99799999999999,100,75,4.6975662133142455,CL,1593015862
arinos,-15.92,-46.11,82.05799999999994,44,1,5.637079455977094,BR,1593016071
westport,41.14,-73.36,84.00200000000001,69,90,11.40837508947745,US,1593016071
san cristobal,7.77,-72.22,89.59999999999997,38,40,5.8160343593414465,VE,1593015878
eskisehir,39.78,30.52,71.59999999999997,60,40,10.28990694345025,TR,1593016050
saint-philippe,-21.36,55.77,71.59999999999997,73,33,20.80350751610594,RE,1593015845
kapaa,22.08,-159.32,76.99999999999994,78,75,11.40837508947745,US,1593015838
hermanus,-34.42,19.23,62.99600000000004,70,0,4.00411596277738,ZA,1593015840
narsaq,60.92,-46.05,49.99999999999994,61,75,10.28990694345025,GL,1593015854
lorengau,-2.02,147.27,82.47200000000004,79,6,9.820150322118826,PG,1593015862
mildura,-34.2,142.15,42.799999999999955,100,18,4.6975662133142455,AU,1593016072
darhan,49.49,105.92,60.04400000000004,76,64,3.6014674302075877,MN,1593015862
norman wells,65.28,-126.83,46.39999999999998,93,90,13.869005010737295,CA,1593015836
tazovskiy,67.47,78.7,50.37800000000004,83,42,5.077845382963494,RU,1593016072
cherskiy,68.75,161.3,44.726000000000056,59,71,7.314781675017896,RU,1593015839
salalah,17.02,54.09,84.19999999999999,89,40,11.40837508947745,OM,1593015864
kahului,20.89,-156.47,71.59999999999997,68,40,6.9345025053686475,US,1593015864
butaritari,3.07,172.79,83.06599999999997,73,39,12.12419470293486,KI,1593015842
port alfred,-33.59,26.89,69.56599999999997,37,0,6.710808876163207,ZA,1593015842
bluff,-46.6,168.33,48.03800000000001,85,87,17.11256263421618,NZ,1593015842
nambucca heads,-30.65,153,53.00600000000003,100,40,5.8160343593414465,AU,1593016072
fortuna,40.6,-124.16,57.991999999999905,100,90,8.05297065139585,US,1593015837
atuona,-9.8,-139.03,78.63799999999998,72,57,17.157301360057264,PF,1593015838
tukrah,32.53,20.58,75.488,62,0,11.274158911954189,LY,1593016073
beringovskiy,63.05,179.32,41.233999999999924,90,98,7.851646385110952,RU,1593015872
tasiilaq,65.61,-37.64,44.599999999999966,75,75,11.40837508947745,GL,1593015838
awallan,17.92,121.91,79.55599999999998,88,100,1.5434860415175375,PH,1593016073
victoria,22.29,114.16,85.99999999999994,74,100,11.989978525411598,HK,1593015570
faanui,-16.48,-151.75,78.90799999999996,85,94,10.312276306370796,PF,1593015852
mount isa,-20.73,139.5,55.39999999999992,30,0,6.9345025053686475,AU,1593015845
lebu,-37.62,-73.65,49.76599999999996,80,100,12.12419470293486,CL,1593015842
watsa,3.04,29.54,70.24999999999994,94,44,2.4606299212598426,CD,1593016073
castro,-24.79,-50.01,70.17800000000005,53,20,10.73729420186113,BR,1593015838
hilo,19.73,-155.09,71.59999999999997,78,90,5.8160343593414465,US,1593015610
aksu,41.12,80.26,72.55400000000003,44,97,12.549212598425198,CN,1593016073
sorland,67.67,12.69,55.39999999999992,76,99,8.05297065139585,NO,1593015853
cabo san lucas,22.89,-109.91,87.80000000000001,33,5,8.05297065139585,MX,1593015739
ibra,22.69,58.53,87.49400000000009,53,0,11.721546170365068,OM,1593016074
palestine,31.92,35.2,78.99799999999999,61,40,13.869005010737295,PS,1593016074
clyde river,70.47,-68.59,40.99999999999994,86,90,8.05297065139585,CA,1593015859
saldanha,-33.01,17.94,71.59999999999997,37,0,3.3554044380816035,ZA,1593015845
port elizabeth,-33.92,25.57,64.39999999999992,39,0,1.1184681460272012,ZA,1593015605
esperance,-33.87,121.9,49.99999999999994,71,75,8.05297065139585,AU,1593015839
yakeshi,49.28,120.73,48.03800000000001,80,53,6.442376521116678,CN,1593016074
kinel,53.23,50.65,64.39999999999992,77,20,4.473872584108805,RU,1593016074
saskylakh,71.92,114.08,75.56,39,5,5.502863278453829,RU,1593015849
villa rica,33.73,-84.92,76.99999999999994,73,40,4.6975662133142455,US,1593016074
waverley,-25.7,28.26,64.39999999999992,27,0,2.2369362920544025,ZA,1593016074
isangel,-19.55,169.27,73.7419999999999,88,76,10.647816750178954,VU,1593015875
senneterre,48.38,-77.23,64.39999999999992,88,90,10.28990694345025,CA,1593016074
malabo,3.75,8.78,73.39999999999992,94,90,9.171438797423049,GQ,1593016074
sungaipenuh,-2.08,101.38,65.04799999999994,89,84,3.6909448818897634,ID,1593016075
upernavik,72.79,-56.15,33.74599999999998,92,100,1.1855762347888332,GL,1593015844
moog,8.6,124.47,78.00799999999998,89,100,5.010737294201862,PH,1593016075
qaanaaq,77.48,-69.36,41.44999999999993,68,0,5.659448818897637,GL,1593015837
taltal,-25.4,-70.48,63.68000000000001,61,90,5.547602004294918,CL,1593016075
margate,51.38,1.39,78.00799999999998,56,0,5.994989262705799,GB,1593015864
walvis bay,-22.96,14.51,82.39999999999992,20,0,6.9345025053686475,NA,1593015840
nkwerre,5.76,7.11,84.23600000000005,74,92,6.845025053686471,NG,1593016075
rumonge,-3.97,29.44,74.38999999999993,63,11,1.700071581961346,BI,1593016075
dikson,73.51,80.55,41.629999999999995,77,71,11.67680744452398,RU,1593015840
hithadhoo,-0.6,73.08,84.21800000000002,76,76,10.871510379384397,MV,1593015854
columbia,34,-81.03,89.00600000000003,58,40,5.8160343593414465,US,1593015863
nikolskoye,59.7,30.79,75.19999999999999,44,46,6.710808876163207,RU,1593015857
cabra,37.47,-4.44,96.99799999999999,24,0,5.010737294201862,ES,1593016075
gizo,-8.1,156.84,82.43599999999998,76,28,9.529348604151753,SB,1593016075
puerto ayora,-0.74,-90.35,76.99999999999994,69,20,8.05297065139585,EC,1593015839
dudinka,69.41,86.18,60.80000000000001,59,34,4.473872584108805,RU,1593016075
rio gallegos,-51.62,-69.22,31.999999999999943,94,90,9.171438797423049,AR,1593016075
ilulissat,69.22,-51.1,42.799999999999955,75,75,5.8160343593414465,GL,1593015852
racalmuto,37.41,13.73,82.99400000000009,100,26,2.9974946313528994,IT,1593016076
hambantota,6.12,81.12,78.80000000000001,100,75,6.9345025053686475,LK,1593015840
ballina,-28.87,153.57,51.00799999999998,75,0,2.2369362920544025,AU,1593016076
yozgat,39.58,35.33,72.82400000000001,44,47,6.397637795275591,TR,1593016076
creel,27.75,-107.63,77.01800000000009,19,0,10.133321403006443,MX,1593016076
loukhi,66.08,33.04,56.62399999999997,86,100,2.125089477451682,RU,1593016076
luderitz,-26.65,15.16,73.39999999999992,23,0,6.9345025053686475,NA,1593015842
tuktoyaktuk,69.45,-133.04,37.39999999999998,89,75,8.05297065139585,CA,1593015849
lagoa,39.05,-27.98,63.212000000000046,66,99,9.864889047959915,PT,1593015871
sorong,-0.88,131.25,79.10599999999994,86,66,7.6726914817466,ID,1593015880
hami,42.8,93.45,85.02800000000008,14,77,8.634574087329993,CN,1593015867
karpathos,35.51,27.21,76.99999999999994,65,0,16.1059413027917,GR,1593016069
bathsheba,13.22,-59.52,87.80000000000001,66,75,24.15891195418755,BB,1593016076
torbay,47.67,-52.73,78.80000000000001,65,75,16.1059413027917,CA,1593015839
aklavik,68.22,-135.01,42.799999999999955,93,90,3.3554044380816035,CA,1593015853
lupiro,-8.38,36.67,76.99999999999994,58,56,0.984251968503937,TZ,1593016076
gat,31.61,34.76,78.99799999999999,61,40,13.869005010737295,IL,1593016076
newport,51.59,-3,82.99400000000009,42,0,11.40837508947745,GB,1593015851
abbeville,50.1,1.83,89.59999999999997,31,0,12.750536864710094,FR,1593016076
charlestown,-32.95,151.67,53.00600000000003,78,19,5.010737294201862,AU,1593015786
cairns,-16.92,145.77,67.99999999999994,82,75,8.05297065139585,AU,1593015824
toora-khem,52.47,96.11,57.56,59,1,1.789549033643522,RU,1593016077
chuy,-33.7,-53.46,63.571999999999946,94,100,3.6014674302075877,UY,1593015848
chokurdakh,70.63,147.92,61.57400000000001,45,19,9.50697924123121,RU,1593015848
sao filipe,14.9,-24.5,78.13399999999996,77,4,9.372763063707946,CV,1593015848
sayyan,15.17,44.32,71.11399999999998,33,95,5.83840372226199,YE,1593016077
kodiak,57.79,-152.41,49.99999999999994,81,90,0.961882605583393,US,1593015839
longyearbyen,78.22,15.64,46.39999999999998,70,75,3.6909448818897634,SJ,1593015857
sovetskiy,61.36,63.58,53.97800000000001,66,86,9.439871152469577,RU,1593016077
beyneu,45.32,55.2,88.50200000000001,12,0,10.535969935576235,KZ,1593016053
oranjemund,-28.55,16.43,65.33600000000007,42,0,5.592340730136006,NA,1593016077
santa isabel do rio negro,-0.41,-65.02,85.24400000000009,73,2,2.3040443808160345,BR,1593015846
palmer,42.16,-72.33,80.00600000000003,65,75,3.3554044380816035,US,1593015859
havre-saint-pierre,50.23,-63.6,78.80000000000001,65,1,8.05297065139585,CA,1593015845
georgetown,5.41,100.34,78.80000000000001,94,20,5.8160343593414465,MY,1593015822
kalengwa,-13.47,25,66.70400000000001,31,0,4.205440229062276,ZM,1593016077
olinda,-8.01,-34.86,82.39999999999992,61,40,13.869005010737295,BR,1593016078
cockburn town,21.46,-71.14,87.80000000000001,62,40,11.40837508947745,TC,1593015855
poltavka,54.37,71.76,60.63799999999998,66,100,7.225304223335719,RU,1593016078
zuenoula,7.43,-6.04,88.89799999999997,53,23,5.234430923407301,CI,1593016078
liverpool,53.41,-2.98,87.00799999999998,45,0,4.6975662133142455,GB,1593015880
manjacaze,-24.71,33.88,63.536,82,22,4.6975662133142455,MZ,1593016078
katsuura,35.13,140.3,69.00799999999998,92,97,4.00411596277738,JP,1593015869
kargasok,59.06,80.86,53.132000000000005,82,28,1.6777022190408017,RU,1593016078
taranto,40.62,17.25,85.99999999999994,35,0,9.171438797423049,IT,1593016078
ohringen,49.2,9.5,78.99799999999999,33,0,9.171438797423049,DE,1593016078
zhigansk,66.77,123.37,63.37399999999997,68,65,6.800286327845384,RU,1593015872
yining,29.04,114.56,74.55200000000008,94,100,1.3421617752326414,CN,1593016078
beipiao,41.79,120.78,64.02199999999999,85,6,1.9013958482462419,CN,1593015864
padang,-0.95,100.35,80.906,59,100,5.39101646385111,ID,1593015854
port moresby,-9.44,147.18,76.99999999999994,94,20,9.171438797423049,PG,1593016078
chifeng,42.27,118.96,68.70200000000006,70,73,10.558339298496778,CN,1593016078
los andes,-32.83,-70.6,48.19999999999993,76,75,1.1184681460272012,CL,1593016078
radomsko,51.07,19.44,66.9919999999999,100,100,3.8027916964924837,PL,1593016079
san juan del sur,11.25,-85.87,69.80000000000001,100,90,4.6975662133142455,NI,1593016079
tomakomai,42.64,141.6,60.99799999999999,87,75,11.40837508947745,JP,1593016079
los llanos de aridane,28.66,-17.92,75.19999999999999,69,75,18.342877594846097,ES,1593015851
pirot,43.15,22.59,71.99600000000004,95,66,3.7356836077308517,RS,1593016079
oskarshamn,57.26,16.45,75.00200000000001,58,0,1.0066213314244812,SE,1593016079
pacifica,37.61,-122.49,64.39999999999992,72,75,6.2857909806728705,US,1593015881
aberdeen,57.14,-2.1,73.39999999999992,60,99,16.1059413027917,GB,1593016079
hovd,48.01,91.64,66.05599999999998,39,99,8.299033643521833,MN,1593015870
hamilton,39.18,-84.53,78.99799999999999,44,40,8.05297065139585,US,1593015763
yerbogachen,61.28,108.01,54.77000000000004,85,22,3.1093414459556192,RU,1593015857
ahuimanu,21.44,-157.84,78.80000000000001,65,20,9.171438797423049,US,1593016069
ouegoa,-20.35,164.43,67.42399999999992,76,0,5.771295633500358,NC,1593016079
khatanga,71.97,102.5,69.13399999999996,66,52,7.89638511095204,RU,1593015846
knyaze-volkonskoye,48.46,135.46,60.80000000000001,93,75,2.2369362920544025,RU,1593016079
masterton,-40.96,175.66,51.00799999999998,71,98,2.9974946313528994,NZ,1593016079
honiara,-9.43,159.95,73.39999999999992,94,20,2.2369362920544025,SB,1593016079
cidreira,-30.18,-50.21,75.79400000000004,54,50,4.630458124552613,BR,1593015853
nanortalik,60.14,-45.24,44.14999999999998,71,77,3.6462061560486756,GL,1593015850
angul,20.85,85.1,84.73999999999995,73,59,8.67931281317108,IN,1593016080
jamestown,42.1,-79.24,67.99999999999994,59,75,18.342877594846097,US,1593015605
puerto colombia,10.99,-74.95,89.59999999999997,70,40,5.8160343593414465,CO,1593016080
hualmay,-11.1,-77.61,66.07400000000001,73,79,8.299033643521833,PE,1593015687
vrangel,42.73,133.08,56.821999999999946,94,100,15.882247673586257,RU,1593016080
patillas,18.01,-66.02,87.99799999999999,67,9,8.00823192555476,PR,1593016081
coquimbo,-29.95,-71.34,57.19999999999999,82,75,4.6975662133142455,CL,1593015808
kautokeino,69.01,23.04,58.244000000000085,57,88,11.274158911954189,NO,1593016081
faya,18.39,42.45,78.80000000000001,8,95,12.750536864710094,SA,1593016081
the valley,18.22,-63.06,85.99999999999994,74,75,16.1059413027917,AI,1593015845
tumut,-35.3,148.22,45.39199999999994,89,91,1.051360057265569,AU,1593016081
berlevag,70.86,29.09,49.99999999999994,81,75,26.39584824624195,NO,1593015858
marrakesh,31.63,-8.01,91.39999999999992,38,0,8.05297065139585,MA,1593016081
bredasdorp,-34.53,20.04,60.80000000000001,87,0,3.310665712240515,ZA,1593015841
iturbe,-26.05,-56.48,80.906,46,49,12.795275590551181,PY,1593016081
yeola,20.03,74.48,83.012,70,29,16.441481746599855,IN,1593016081
ust-nera,64.57,143.2,63.391999999999996,46,63,1.2750536864710091,RU,1593016081
namatanai,-3.67,152.43,79.75399999999996,79,58,8.34377236936292,PG,1593015862
marsa matruh,31.35,27.25,75.19999999999999,69,20,8.05297065139585,EG,1593016081
takab,36.4,47.11,76.53199999999998,18,0,8.90300644237652,IR,1593016081
the pas,53.83,-101.25,75.19999999999999,47,1,8.05297065139585,CA,1593015874
shimoda,34.67,138.95,66.00200000000001,95,99,1.990873299928418,JP,1593015859
surt,31.21,16.59,76.55000000000001,62,0,16.24015748031496,LY,1593016082
kiama,-34.68,150.87,53.99600000000004,81,37,9.999105225483177,AU,1593016080
kununurra,-15.77,128.73,57.19999999999999,29,0,10.468861846814603,AU,1593016082
harrisonville,38.65,-94.35,82.39999999999992,39,1,4.6975662133142455,US,1593016082
tiksi,71.69,128.87,58.63999999999993,62,22,3.5119899785254116,RU,1593015837
shirgaon,19.7,72.7,85.38799999999998,77,0,11.766284896206155,IN,1593016082
east london,-33.02,27.91,72.93199999999996,38,0,5.368647100930565,ZA,1593015846
college,64.86,-147.8,49.99999999999994,87,90,3.3554044380816035,US,1593015841
kikwit,-5.04,18.82,90.30200000000008,29,47,2.438260558339299,CD,1593016082
hofn,64.25,-15.21,53.599999999999966,87,90,17.2244094488189,IS,1593015862
mar del plata,-38,-57.56,55.39999999999992,71,63,8.05297065139585,AR,1593015651
scottsbluff,41.87,-103.67,76.99999999999994,50,1,3.89226914817466,US,1593015881
les cayes,18.2,-73.75,85.62200000000001,71,41,9.305654974946314,HT,1593016082
laguna,38.42,-121.42,71.99600000000004,60,1,3.3554044380816035,US,1593015885
cayenne,4.93,-52.33,82.39999999999992,88,4,10.28990694345025,GF,1593015862
portland,45.52,-122.68,69.99799999999999,68,75,3.3554044380816035,US,1593015708
busayra,30.74,35.61,74.4260000000001,30,0,13.130816034359341,JO,1593016083
hervey bay,-25.3,152.85,53.00600000000003,66,0,5.994989262705799,AU,1593015844
moose factory,51.26,-80.61,44.599999999999966,100,90,13.869005010737295,CA,1593015843
ahipara,-35.17,173.17,55.11200000000002,88,92,6.06209735146743,NZ,1593016083
hasaki,35.73,140.83,64.39999999999992,100,75,6.9345025053686475,JP,1593016083
salyan,39.59,48.98,83.57,38,0,10.424123120973515,AZ,1593016083
nguru,12.88,10.45,104.77399999999994,14,18,6.330529706513959,NG,1593016083
ormond beach,29.29,-81.06,91.99400000000009,59,1,6.9345025053686475,US,1593016022
chimoio,-19.12,33.48,66.00200000000001,82,75,5.972619899785254,MZ,1593016083
vila franca do campo,37.72,-25.43,66.19999999999999,59,20,17.2244094488189,PT,1593016083
kharp,66.8,65.81,49.27999999999997,81,93,7.806907659269864,RU,1593016083
vao,-22.67,167.48,70.52000000000004,70,32,12.459735146743022,NC,1593015859
shakawe,-18.37,21.85,66.72200000000004,26,0,5.055476020042949,BW,1593016083
vila velha,-20.33,-40.29,80.59999999999997,51,59,11.40837508947745,BR,1593015839
ulaangom,49.98,92.07,66.11000000000007,36,79,3.310665712240515,MN,1593015853
izumo,35.37,132.77,75.19999999999999,64,40,6.9345025053686475,JP,1593016084
metro,-5.11,105.31,74.94800000000004,90,100,0.7605583392984968,ID,1593016084
boffa,10.17,-14.03,86.27000000000004,68,96,6.509484609878311,GN,1593016084
kruisfontein,-34,24.73,67.69400000000002,24,0,9.350393700787402,ZA,1593015865
sapiranga,-29.64,-51.01,85.99999999999994,39,27,8.00823192555476,BR,1593016084
fallon,39.47,-118.78,82.39999999999992,21,40,5.8160343593414465,US,1593016084
saint-augustin,51.23,-58.65,69.99799999999999,72,89,18.320508231925555,CA,1593015843
chapais,49.78,-74.85,73.39999999999992,69,75,13.869005010737295,CA,1593016084
maragogi,-9.01,-35.22,79.52000000000004,70,11,9.999105225483177,BR,1593016084
sinnamary,5.38,-52.95,82.32800000000003,79,21,6.487115246957766,GF,1593016084
quime,-16.98,-67.22,63.06800000000004,27,4,4.809413027916965,BO,1593016084
tuscaloosa,33.21,-87.57,75.9919999999999,88,90,3.3554044380816035,US,1593016084
adrar,20.5,-10.07,108.75200000000001,10,4,7.739799570508232,MR,1593015851
alofi,-19.06,-169.92,66.19999999999999,100,32,1.1184681460272012,NU,1593015848
atar,20.52,-13.05,108.93199999999996,10,0,7.538475304223336,MR,1593016084
viedma,-40.81,-63,51.313999999999965,47,96,11.878131710808875,AR,1593015854
port macquarie,-31.43,152.92,53.99600000000004,75,25,10.960987831066571,AU,1593015630
labuhan,-6.88,112.21,78.7100000000001,82,100,5.681818181818182,ID,1593015879
kamiiso,41.82,140.65,58.622000000000014,88,100,9.081961345740872,JP,1593016085
kailua,21.4,-157.74,78.80000000000001,65,20,9.171438797423049,US,1593016085
agadez,19.75,10.25,107.906,7,0,12.68342877594846,NE,1593016085
thompson,55.74,-97.86,76.99999999999994,41,20,8.05297065139585,CA,1593015847
san carlos de bariloche,-41.15,-71.31,37.39999999999998,69,40,2.2369362920544025,AR,1593015807
paamiut,61.99,-49.67,42.18799999999999,76,100,6.643700787401575,GL,1593016085
mirnyy,62.54,113.96,55.39999999999992,100,20,2.2369362920544025,RU,1593015867
port elgin,46.05,-64.09,84.19999999999999,54,20,10.28990694345025,CA,1593016085
leningradskiy,69.38,178.42,31.603999999999985,94,99,12.39262705798139,RU,1593015852
sulangan,11.14,123.72,84.73999999999995,75,100,8.835898353614889,PH,1593016085
dullewala,31.84,71.44,108.35599999999994,17,29,9.439871152469577,PK,1593016085
bengkulu,-3.8,102.27,77.738,70,99,4.362025769506085,ID,1593015854
coahuayana,18.73,-103.68,73.39999999999992,78,75,2.863278453829635,MX,1593016085
ribeira grande,38.52,-28.7,66.19999999999999,72,20,10.28990694345025,PT,1593015846
vilyuysk,63.76,121.62,62.45599999999996,64,0,4.138332140300644,RU,1593016086
caravelas,-17.71,-39.25,77.70200000000006,56,18,6.710808876163207,BR,1593016086
rassvet,46.83,40.75,74.96599999999995,79,59,14.115068002863278,RU,1593016086
lompoc,34.64,-120.46,57.991999999999905,93,90,3.3554044380816035,US,1593015857
moshupa,-24.78,25.42,62.599999999999966,36,0,2.2369362920544025,BW,1593016086
ostrovnoy,68.05,39.51,44.74400000000003,78,49,9.663564781675019,RU,1593015857
pimentel,-6.84,-79.93,66.19999999999999,77,90,10.28990694345025,PE,1593015877
airai,-8.93,125.41,58.117999999999995,100,49,3.4225125268432355,TL,1593015840
katherine,-14.47,132.27,62.599999999999966,51,0,8.05297065139585,AU,1593016086
touros,-5.2,-35.46,80.59999999999997,74,75,11.40837508947745,BR,1593015719
shelburne,44.08,-80.2,64.00399999999996,63,90,17.2244094488189,CA,1593016086
haines junction,60.75,-137.51,47.49799999999999,59,85,5.346277738010022,CA,1593016086
nixa,37.04,-93.29,78.99799999999999,44,1,5.8160343593414465,US,1593016086
saint george,37.1,-113.58,87.80000000000001,12,1,2.6172154617036507,US,1593015849
morvi,22.82,70.83,87.00799999999998,10,86,12.72816750178955,IN,1593016087
linxia,35.6,103.21,59.23399999999998,50,0,3.78042233357194,CN,1593016087
ponta do sol,32.67,-17.1,76.99999999999994,57,40,14.987473156764496,PT,1593015851
yulara,-25.24,130.99,46.39999999999998,39,56,6.9345025053686475,AU,1593015855
kigoma,-4.88,29.63,82.39999999999992,54,20,5.8160343593414465,TZ,1593016087
brookhaven,31.58,-90.44,78.80000000000001,78,75,11.2294201861131,US,1593016028
iranshahr,27.2,60.68,103.99999999999994,26,20,11.40837508947745,IR,1593016087
cortes,41.94,-1.44,93.19999999999999,18,58,14.987473156764496,ES,1593016087
bambous virieux,-20.34,57.76,71.99600000000004,83,40,10.28990694345025,MU,1593015852
tucurui,-3.77,-49.67,88.12399999999997,51,36,5.704187544738725,BR,1593016087
port blair,11.67,92.75,82.90400000000005,81,95,11.207050823192555,IN,1593015873
geraldton,-28.77,114.6,55.39999999999992,82,24,8.05297065139585,AU,1593015864
eucaliptus,-17.58,-67.52,52.77199999999999,29,0,11.609699355762348,BO,1593016087
casper,42.87,-106.31,78.80000000000001,29,1,5.8160343593414465,US,1593015844
stepnogorsk,52.35,71.89,60.69199999999995,53,84,2.863278453829635,KZ,1593016087
botshabelo,-29.27,26.71,53.599999999999966,27,0,0.6934502505368647,ZA,1593016087
port-au-prince,18.54,-72.33,93.19999999999999,41,20,9.171438797423049,HT,1593015911
pec,42.66,20.29,71.59999999999997,53,40,8.05297065139585,XK,1593016087
yarkovo,57.4,67.08,55.47200000000004,94,100,5.458124552612742,RU,1593016088
qaqortoq,60.72,-46.03,49.99999999999994,61,75,10.28990694345025,GL,1593016088
lyuban,52.8,28,74.012,74,57,5.279169649248389,BY,1593016088
mahanoro,-19.9,48.8,70.61000000000007,90,75,4.33965640658554,MG,1593015841
yinchuan,38.47,106.27,69.99799999999999,16,0,5.994989262705799,CN,1593016088
abha,18.22,42.51,78.80000000000001,8,98,12.750536864710094,SA,1593016088
kljuc,44.53,16.77,76.99999999999994,31,0,3.3554044380816035,BA,1593016088
veraval,20.9,70.37,86.86399999999998,75,7,9.28328561202577,IN,1593016088
meiningen,50.57,10.42,78.99799999999999,41,8,9.171438797423049,DE,1593016088
sur,22.57,59.53,85.49600000000004,77,0,7.314781675017896,OM,1593016088
bainbridge,47.63,-122.52,64.00399999999996,86,71,1.0066213314244812,US,1593016038
mahebourg,-20.41,57.7,71.59999999999997,83,40,10.28990694345025,MU,1593015854
yumen,40.28,97.2,75.56,17,92,4.652827487473157,CN,1593016088
tiznit,29.58,-9.5,79.286,51,0,9.864889047959915,MA,1593016089
bayanday,53.07,105.51,56.74999999999994,80,21,2.6619541875447386,RU,1593016089
acarau,-2.89,-40.12,84.84800000000001,62,26,11.587329992841804,BR,1593016074
udachnyy,66.42,112.4,67.99999999999994,34,0,6.710808876163207,RU,1593016084
bilma,18.69,12.92,108.68,6,0,11.7886542591267,NE,1593016089
manado,1.49,124.85,76.99999999999994,94,40,3.847530422333572,ID,1593016089
loma bonita,8.38,-80.17,84.19999999999999,72,40,5.8160343593414465,PA,1593016089
pitimbu,-7.47,-34.81,84.19999999999999,58,40,14.987473156764496,BR,1593015852
port lincoln,-34.73,135.87,55.18399999999991,86,0,12.9071224051539,AU,1593015856
parana,-31.73,-60.52,55.994000000000085,96,96,2.9974946313528994,AR,1593015908
garden city,42.33,-83.33,73.39999999999992,46,40,12.750536864710094,US,1593016089
sisophon,13.59,102.97,80.52800000000008,86,100,5.793664996420902,KH,1593016089
san andres,12.58,-81.7,85.99999999999994,74,40,18.342877594846097,CO,1593016089
buraydah,26.33,43.98,98.59999999999997,16,31,12.750536864710094,SA,1593016089
dayong,25.02,118.29,85.99999999999994,79,100,4.473872584108805,CN,1593016090
lao cai,22.48,103.95,83.858,63,100,2.125089477451682,VN,1593016090
husavik,66.04,-17.34,60.80000000000001,51,40,20.80350751610594,IS,1593016090
gamba,-2.65,10,75.23600000000005,79,59,10.043843951324266,GA,1593016090
aviles,43.55,-5.92,66.00200000000001,100,65,4.6975662133142455,ES,1593016090
acapulco,16.86,-99.89,80.59999999999997,78,90,8.05297065139585,MX,1593015655
chara,56.91,118.26,56.858000000000004,68,100,3.310665712240515,RU,1593015882
port-gentil,-0.72,8.78,76.99999999999994,83,40,14.987473156764496,GA,1593015839
henties bay,-22.12,14.28,75.00200000000001,35,0,1.0066213314244812,NA,1593015863
tigre,-34.43,-58.58,57.19999999999999,76,90,8.05297065139585,AR,1593016090
mega,4.05,38.3,62.07800000000003,87,56,9.216177523264138,ET,1593016090
baykit,61.67,96.37,60.962000000000046,81,76,2.035612025769506,RU,1593015847
cap malheureux,-19.98,57.61,71.99600000000004,75,16,5.010737294201862,MU,1593016090
saint-joseph,-21.37,55.62,71.59999999999997,73,18,20.80350751610594,RE,1593015847
ponta delgada,37.73,-25.67,66.19999999999999,59,20,17.2244094488189,PT,1593016090
huangnihe,43.56,128.02,56.93000000000001,96,100,3.6014674302075877,CN,1593016090
rudnogorsk,57.26,103.75,60.45799999999991,61,21,0.894774516821761,RU,1593016090
puerto quijarro,-17.78,-57.77,91.31,30,33,11.028095919828203,BO,1593016091
tvoroyri,61.56,-6.81,51.799999999999955,93,59,11.40837508947745,FO,1593016091
vestmannaeyjar,63.44,-20.27,51.799999999999955,87,75,6.9345025053686475,IS,1593015845
deputatskiy,69.3,139.9,60.26000000000005,62,2,0.31317108088761636,RU,1593016079
talnakh,69.49,88.4,60.80000000000001,59,62,4.473872584108805,RU,1593015869
alexandria,31.22,29.96,78.80000000000001,61,0,10.28990694345025,EG,1593015576
nogliki,51.83,143.17,41.52199999999999,96,92,11.632068718682893,RU,1593016091
kropotkin,45.44,40.58,71.51000000000005,86,100,14.965103793843953,RU,1593016091
ferme-neuve,46.7,-75.45,67.31599999999997,64,95,13.06370794559771,CA,1593016091
vallenar,-28.57,-70.76,61.646000000000015,64,100,3.6685755189692197,CL,1593015865
rio grande,-32.03,-52.1,84.19999999999999,42,40,13.869005010737295,BR,1593015580
san patricio,19.22,-104.7,80.59999999999997,78,75,13.869005010737295,MX,1593015856
luanda,-8.84,13.23,76.99999999999994,73,99,11.40837508947745,AO,1593015742
yueyang,29.33,113.09,74.91199999999998,96,92,4.742304939155333,CN,1593016092
conneaut,41.95,-80.55,69.80000000000001,56,40,13.869005010737295,US,1593016092
baijiantan,45.63,85.18,78.47600000000006,38,84,19.23765211166786,CN,1593016092
kirakira,-10.45,161.92,78.584,81,2,4.898890479599141,SB,1593015844
bam,29.11,58.36,93.46999999999997,11,0,12.213672154617036,IR,1593015883
spornoye,50.84,37.29,73.39999999999992,46,2,13.421617752326414,RU,1593016092
pathein,16.78,94.73,81.77000000000004,84,91,3.9593772369362923,MM,1593016092
bhayavadar,21.85,70.25,86.97200000000004,69,6,11.318897637795274,IN,1593016092
onufriyivka,48.91,33.45,73.61599999999993,64,16,11.699176807444525,UA,1593016092
yekaterinovka,52.05,44.35,63.06800000000004,87,78,7.739799570508232,RU,1593016092
dawson creek,55.77,-120.24,62.599999999999966,48,20,12.750536864710094,CA,1593016092
birao,10.28,22.79,80.67199999999997,71,79,3.9593772369362923,CF,1593015868
guerande,47.33,-2.43,89.59999999999997,43,0,4.6975662133142455,FR,1593016092
novyy urengoy,66.08,76.63,60.27800000000008,48,57,2.3264137437365786,RU,1593015845
gien,47.69,2.63,84.9919999999999,51,0,9.484609878310666,FR,1593016093
araua,-11.26,-37.62,76.99999999999994,88,75,12.750536864710094,BR,1593016093
kavieng,-2.57,150.8,83.30000000000001,74,12,14.89799570508232,PG,1593015857
ampanihy,-24.7,44.75,65.53399999999993,80,31,11.632068718682893,MG,1593015871
xianyang,34.34,108.7,84.00200000000001,61,87,8.94774516821761,CN,1593016093
puerto narino,-3.77,-70.38,84.19999999999999,74,20,4.6975662133142455,CO,1593016093
kenora,49.82,-94.43,69.80000000000001,49,20,9.171438797423049,CA,1593016049
port hardy,50.7,-127.42,53.599999999999966,93,90,9.171438797423049,CA,1593015869
prince rupert,54.32,-130.32,53.599999999999966,87,90,3.3554044380816035,CA,1593016093
utevka,52.9,50.95,58.783999999999935,89,87,6.0844667143879745,RU,1593016093
waitati,-45.75,170.57,46.99400000000003,88,85,11.989978525411598,NZ,1593016093
yar-sale,66.83,70.83,51.99799999999999,53,10,13.62294201861131,RU,1593015852
lavrentiya,65.58,-171,35.92399999999998,79,94,10.088582677165354,RU,1593015852
praya,14.92,-23.51,85.99999999999994,58,6,16.1059413027917,CV,1593016071
muzambinho,-21.38,-46.53,69.85399999999998,58,28,6.039727988546887,BR,1593016094
belaya gora,68.53,146.42,68.21599999999995,42,85,6.464745884037223,RU,1593016094
guerrero negro,27.98,-114.06,67.55000000000001,71,82,9.84251968503937,MX,1593015874
zyryanka,65.75,150.85,64.61599999999993,42,0,4.473872584108805,RU,1593016094
cassilandia,-19.11,-51.73,83.76800000000009,35,39,11.34126700071582,BR,1593016080
panaba,21.28,-88.27,87.00799999999998,70,97,12.72816750178955,MX,1593016094
itupiranga,-5.13,-49.33,87.80000000000001,58,40,5.8160343593414465,BR,1593016094
pahrump,36.21,-115.98,91.39999999999992,7,1,8.142448103078024,US,1593016040
pandan,14.05,124.17,82.14799999999997,83,100,7.516105941302792,PH,1593016094
ondjiva,-17.07,15.73,76.99999999999994,23,0,6.9345025053686475,AO,1593015851
kovdor,67.57,30.48,60.853999999999985,61,100,9.395132426628491,RU,1593016094
kayerkan,69.35,87.76,60.80000000000001,59,31,4.473872584108805,RU,1593016094
nantucket,41.28,-70.1,71.00600000000003,88,90,14.987473156764496,US,1593015965
payo,-3.75,103.64,70.55599999999998,79,90,2.3711524695776665,ID,1593016094
mazamet,43.49,2.37,84.19999999999999,48,13,18.342877594846097,FR,1593016094
chengde,40.97,117.94,66.19999999999999,87,100,2.2145669291338583,CN,1593016095
harper,4.38,-7.72,80.25799999999998,73,69,9.663564781675019,LR,1593015881
iskilip,40.74,34.47,73.13000000000005,55,49,6.464745884037223,TR,1593016095
vanavara,60.34,102.28,60.81800000000004,62,8,2.9974946313528994,RU,1593016095
adra,36.75,-3.02,84.19999999999999,45,0,8.05297065139585,ES,1593016095
mackay,-21.15,149.2,46.39999999999998,93,0,4.6975662133142455,AU,1593016095
komsomolskiy,40.43,71.72,80.59999999999997,24,43,11.40837508947745,UZ,1593015854
leua,48.22,18.61,75.00200000000001,60,0,8.992483894058696,SK,1593016095
lebyazhye,55.27,66.49,58.63999999999993,80,61,6.487115246957766,RU,1593016095
coihaique,-45.58,-72.07,40.99999999999994,75,20,3.3554044380816035,CL,1593015683
ituacu,-13.81,-41.3,75.09199999999993,56,42,11.117573371510378,BR,1593016095
pantai remis,4.46,100.63,76.99999999999994,94,20,6.464745884037223,MY,1593016095
yeppoon,-23.13,150.73,44.599999999999966,87,0,4.071224051539012,AU,1593016095
hof,50.32,11.92,71.99600000000004,46,18,13.869005010737295,DE,1593016095
moroni,-11.7,43.26,77.28799999999995,80,20,15.3453829634932,KM,1593016095
romanovo,52.62,81.23,64.76000000000005,79,6,8.030601288475305,RU,1593016095
santa flavia,38.09,13.54,80.99600000000004,47,3,7.001610594130279,IT,1593016095
mrakovo,52.72,56.62,58.910000000000025,82,60,6.106836077308518,RU,1593016087
akhisar,38.92,27.84,84.19999999999999,45,20,5.8160343593414465,TR,1593016096
podosinovets,60.28,47.07,50.162000000000035,56,98,7.4713672154617035,RU,1593016096
codrington,-38.27,141.97,50.64799999999997,85,91,8.701682176091625,AU,1593015854
la orilla,17.98,-102.23,87.72800000000001,58,4,6.263421617752326,MX,1593016096
namibe,-15.2,12.15,75.75799999999998,51,0,12.68342877594846,AO,1593015702
asau,46.43,26.4,69.99799999999999,77,88,2.438260558339299,RO,1593015853
normandin,48.83,-72.53,73.39999999999992,83,75,8.05297065139585,CA,1593016096
dunedin,-45.87,170.5,46.99400000000003,91,93,9.439871152469577,NZ,1593015872
calama,-22.47,-68.93,62.599999999999966,9,0,14.987473156764496,CL,1593016096
maraa,-1.83,-65.37,82.63399999999996,87,68,2.5501073729420183,BR,1593016096
severo-yeniseyskiy,60.37,93.04,63.03199999999998,63,99,1.923765211166786,RU,1593016096
alekseyevsk,57.84,108.35,56.768000000000086,70,4,1.0737294201861132,RU,1593015876
mbaiki,3.87,17.99,80.27600000000001,75,67,0.894774516821761,CF,1593016096
yagodnoye,62.55,149.67,55.688000000000045,78,56,1.6329634931997137,RU,1593016096
hay river,60.82,-115.8,67.99999999999994,42,20,6.9345025053686475,CA,1593016096
hobyo,5.35,48.53,80.29400000000004,72,11,28.722261989978527,SO,1593016096
eureka,40.8,-124.16,58.99999999999994,100,6,1.990873299928418,US,1593015824
defiance,41.33,-84.45,73.39999999999992,49,75,8.05297065139585,US,1593016097
san quintin,30.48,-115.95,65.82199999999995,79,100,4.473872584108805,MX,1593015874
kalabo,-14.97,22.68,67.892,27,0,3.4225125268432355,ZM,1593016097
mayahi,13.96,7.67,104.91800000000006,12,0,8.276664280601288,NE,1593016097
estelle,29.85,-90.11,75.19999999999999,100,90,10.28990694345025,US,1593016097
sale,34.04,-6.82,73.39999999999992,69,75,12.750536864710094,MA,1593016097
zherdevka,51.85,41.46,65.858,82,22,9.104330708661418,RU,1593016097
atambua,-9.11,124.89,71.14999999999992,89,36,4.764674302075877,ID,1593015846
morehead,37.27,-87.18,78.80000000000001,53,40,3.3554044380816035,US,1593015865
bonthe,7.53,-12.51,81.66199999999998,78,84,12.280780243378668,SL,1593016097
den helder,52.96,4.76,76.99999999999994,69,90,13.869005010737295,NL,1593016097
akwatia,6.04,-0.81,83.31800000000004,72,72,6.106836077308518,GH,1593016097
jacqueville,5.21,-4.41,82.39999999999992,83,20,12.750536864710094,CI,1593016097
prainha,-1.8,-53.48,88.10599999999994,52,3,4.675196850393701,BR,1593016097
kouango,4.99,19.96,80.87000000000006,84,99,2.505368647100931,CF,1593016098
eyl,7.98,49.82,87.67399999999992,53,40,22.593056549749463,SO,1593016098
klaksvik,62.23,-6.59,51.799999999999955,93,63,11.40837508947745,FO,1593015850
sao gabriel da cachoeira,-0.13,-67.09,78.80000000000001,83,75,3.3554044380816035,BR,1593016098
alice springs,-23.7,133.88,37.39999999999998,59,0,1.1184681460272012,AU,1593015853
trapani,37.83,12.67,80.59999999999997,78,20,9.171438797423049,IT,1593016098
grindavik,63.84,-22.43,55.39999999999992,71,75,13.869005010737295,IS,1593015840
chicama,-7.84,-79.15,71.834,60,41,9.61882605583393,PE,1593016098
sitka,57.05,-135.33,51.799999999999955,81,90,0.939513242662849,US,1593015859
birin,26.89,88.07,65.49799999999999,100,96,2.035612025769506,NP,1593016099
dingle,11,122.67,79.844,82,99,4.496241947029348,PH,1593015850
miranda,3.25,-76.23,82.39999999999992,65,40,4.6975662133142455,CO,1593016099
balikpapan,-1.27,116.83,77.50399999999996,90,80,7.874015748031496,ID,1593016099
fartura,-23.39,-49.51,76.72999999999996,51,5,9.641195418754473,BR,1593016099
konya,38.17,32.5,76.99999999999994,33,40,3.3554044380816035,TR,1593016099
behbahan,30.6,50.24,105.80000000000001,16,0,6.9345025053686475,IR,1593016099
solnechnyy,50.72,136.63,52.86200000000002,93,100,0.4026485325697924,RU,1593016099
saint-pierre,-21.34,55.48,71.59999999999997,73,5,20.80350751610594,RE,1593015861
jumla,29.27,82.18,60.71000000000009,70,19,1.028990694345025,NP,1593016099
bonavista,48.65,-53.11,62.36599999999993,81,27,11.274158911954189,CA,1593016099
ejido,8.55,-71.24,82.65199999999999,22,100,4.362025769506085,VE,1593016100
potchefstroom,-26.72,27.1,53.762,37,0,1.3197924123120972,ZA,1593016100
carballo,43.21,-8.69,66.9919999999999,80,21,8.00823192555476,ES,1593016100
kloulklubed,7.04,134.26,75.19999999999999,94,75,5.8160343593414465,PW,1593016100
altamira,-3.2,-52.21,89.59999999999997,55,75,6.9345025053686475,BR,1593016100
zhangjiakou,40.81,114.88,65.03000000000003,71,100,5.167322834645669,CN,1593016100
carutapera,-1.2,-46.02,81.44599999999997,86,40,9.663564781675019,BR,1593016091
karonga,-9.93,33.93,72.44599999999997,76,0,8.880637079455978,MW,1593016101
palana,59.12,159.97,41.79199999999997,94,50,12.593951324266285,RU,1593016101
illapel,-31.63,-71.17,53.29400000000004,59,50,3.400143163922692,CL,1593016101
mehamn,71.04,27.85,49.99999999999994,81,75,26.39584824624195,NO,1593015878
ryotsu,38.08,138.43,71.59999999999997,88,100,4.6975662133142455,JP,1593016101
taraz,42.9,71.37,75.19999999999999,22,0,4.473872584108805,KZ,1593016101
nizhniy kuranakh,58.84,125.49,58.315999999999974,63,73,2.863278453829635,RU,1593016101
avera,33.19,-82.53,84.19999999999999,62,1,9.171438797423049,US,1593016101
tondano,1.3,124.91,76.99999999999994,94,40,2.863278453829635,ID,1593016101
sao joao da ponte,-15.93,-44.01,78.45799999999991,39,0,7.3371510379384395,BR,1593016101
bayan,46.08,127.4,57.037999999999954,92,55,4.809413027916965,CN,1593016101
goderich,43.75,-81.72,60.99799999999999,82,37,16.217788117394417,CA,1593016101
blatnica,44.49,17.82,76.99999999999994,31,3,3.3554044380816035,BA,1593016102
lashio,22.93,97.75,69.31400000000002,97,98,0.6934502505368647,MM,1593016102
roebourne,-20.78,117.13,68.08999999999997,76,0,1.6105941302791695,AU,1593015857
mattawa,46.74,-119.9,80.99600000000004,50,40,13.399248389405871,US,1593016102
general roca,-39.03,-67.58,44.599999999999966,46,26,10.28990694345025,AR,1593016102
salamiyah,35.01,37.05,77.46800000000002,34,0,19.036327845382964,SY,1593016102
alcaniz,41.05,-0.13,75.9919999999999,72,24,5.994989262705799,ES,1593016102
sioux lookout,50.1,-91.92,67.99999999999994,37,20,10.28990694345025,CA,1593016102
ulaanbaatar,47.91,106.88,49.99999999999994,87,40,3.6909448818897634,MN,1593016102
coihueco,-36.62,-71.83,46.39999999999998,93,90,13.869005010737295,CL,1593016066
waipawa,-41.41,175.52,51.00799999999998,71,87,2.9974946313528994,NZ,1593015852
le mars,42.79,-96.17,91.39999999999992,59,1,8.05297065139585,US,1593016103
yancheng,33.39,120.13,73.27399999999994,89,73,0.5368647100930566,CN,1593016103
sydney,-33.87,151.21,53.599999999999966,71,9,18.342877594846097,AU,1593015627
witbank,-25.87,29.23,54.608000000000004,35,0,7.292412312097351,ZA,1593016103
abu dhabi,24.47,54.37,93.19999999999999,75,0,9.171438797423049,AE,1593015785
gander,48.97,-54.59,80.59999999999997,57,75,11.40837508947745,CA,1593016103
kingori,-3.28,36.98,76.99999999999994,61,75,5.8160343593414465,TZ,1593016103
mkushi,-13.62,29.39,63.33800000000002,58,21,8.05297065139585,ZM,1593016103
santa lucia,27.91,-15.54,80.00600000000003,57,20,28.85647816750179,ES,1593016103
plettenberg bay,-34.05,23.37,73.868,25,0,8.880637079455978,ZA,1593015862
kutum,14.2,24.67,95.23399999999998,11,70,10.267537580529707,SD,1593016104
santa cruz,-17.8,-63.17,76.99999999999994,88,75,20.80350751610594,BO,1593016018
campbell river,50.02,-125.24,58.99999999999994,100,90,5.8160343593414465,CA,1593015822
ilovlya,49.3,43.98,80.00600000000003,47,68,20.132426628489622,RU,1593016104
nepa nagar,21.47,76.4,88.17800000000005,61,50,4.652827487473157,IN,1593016104
kaeo,-35.1,173.78,51.99799999999999,3,68,2.9974946313528994,NZ,1593015859
da lat,11.95,108.44,62.36599999999993,100,61,0.7605583392984968,VN,1593016104
kodinar,20.79,70.7,86.54000000000002,75,1,9.23854688618468,IN,1593016104
shirokiy,49.76,129.52,54.103999999999985,96,100,9.931997136721547,RU,1593016104
emba,48.83,58.14,74.06599999999997,34,61,11.475483178239084,KZ,1593015862
ayolas,-27.4,-56.9,75.09199999999993,56,96,12.526843235504652,PY,1593016104
mogilno,52.66,17.96,69.99799999999999,79,100,7.113457408733,PL,1593016104
somerset east,-32.72,25.59,61.68199999999996,29,0,9.328024337866857,ZA,1593016105
qui nhon,13.77,109.23,81.51800000000009,86,52,8.477988546886184,VN,1593015882
aldan,58.6,125.39,55.95799999999991,63,48,4.496241947029348,RU,1593016105
nichinan,31.6,131.37,73.00399999999996,83,100,4.00411596277738,JP,1593016105
ulladulla,-35.35,150.47,51.799999999999955,76,7,13.869005010737295,AU,1593015855
coulommiers,48.81,3.08,89.59999999999997,27,4,13.869005010737295,FR,1593016105
srednekolymsk,67.45,153.68,58.19,36,0,7.314781675017896,RU,1593015867
pachino,36.72,15.09,78.99799999999999,75,0,9.484609878310666,IT,1593016105
tekeli,44.83,78.82,55.70599999999996,38,29,2.6395848246241944,KZ,1593016105
kamenka,51.32,42.77,66.9919999999999,78,52,12.996599856836077,RU,1593016075
leninsk-kuznetskiy,54.66,86.17,67.99999999999994,68,87,4.473872584108805,RU,1593016105
hinesburg,44.33,-73.11,75.19999999999999,69,75,6.9345025053686475,US,1593016105
nanfeng,23.74,111.8,81.13999999999993,86,100,1.4763779527559056,CN,1593016105
pevek,69.7,170.31,30.452000000000055,98,51,9.014853256979242,RU,1593015840
jalu,29.03,21.55,94.65799999999996,16,0,15.076950608446673,LY,1593016095
seoul,37.57,126.98,69.80000000000001,100,90,5.8160343593414465,KR,1593015801
pacific grove,36.62,-121.92,57.19999999999999,93,90,4.6975662133142455,US,1593015760
winslow,35.02,-110.7,84.19999999999999,11,1,1.2303149606299213,US,1593015916
uyuni,-20.46,-66.83,47.786,33,0,20.400858983536146,BO,1593016106
guanica,17.97,-66.91,89.00600000000003,55,98,5.994989262705799,PR,1593016106
yangjiang,21.85,111.97,81.82400000000001,92,100,8.656943450250537,CN,1593016106
sokolo,14.73,-6.12,104.666,16,74,2.5948460987831066,ML,1593016106
russell,32.35,-85.2,82.99400000000009,69,1,4.6975662133142455,US,1593015856
flinders,-34.58,150.86,53.99600000000004,74,33,1.0066213314244812,AU,1593016106
te anau,-45.42,167.72,40.136000000000024,89,70,1.968503937007874,NZ,1593016106
akita,39.72,140.12,67.31599999999997,80,97,14.025590551181102,JP,1593016106
requena,39.49,-1.1,84.00200000000001,44,63,13.555833929849678,ES,1593016107
batayurt,43.32,46.69,77.54000000000002,61,96,2.3711524695776665,RU,1593016107
gonaives,19.45,-72.68,85.99999999999994,70,75,11.40837508947745,HT,1593016107
santa maria del oro,25.93,-105.37,78.34999999999997,37,69,6.889763779527559,MX,1593016107
manoel urbano,-8.84,-69.26,89.00600000000003,50,86,4.250178954903364,BR,1593015880
lunglei,22.88,92.73,71.78000000000003,100,99,0.5592340730136006,IN,1593016107
foam lake,51.65,-103.53,70.32199999999995,72,33,12.39262705798139,CA,1593016107
entre rios,-11.94,-38.08,78.13399999999996,73,55,10.200429491768073,BR,1593016108
tual,-5.67,132.75,80.38399999999996,78,3,22.57068718682892,ID,1593015862
lisakovsk,52.54,62.49,63.49999999999994,59,47,8.38851109520401,KZ,1593016001
loubomo,-4.2,12.67,80.59999999999997,59,73,7.292412312097351,CG,1593016108
imeni poliny osipenko,52.42,136.49,47.372000000000014,91,99,10.021474588403724,RU,1593016108
