,City,Lat,Lng,Max Temp,Humidity,Cloudiness,Wind Speed,Country,Date
0,busselton,-33.65,115.33,53.00600000000003,69,40,12.817644953471726,AU,1592950258
1,batagay-alyta,67.8,130.41,74.858,40,6,4.33965640658554,RU,1592950258
3,rikitea,-23.12,-134.97,69.9260000000001,54,100,9.954366499642092,PF,1592950258
4,kislovodsk,43.91,42.72,67.99999999999994,56,0,11.184681460272012,RU,1592950258
5,shimoda,34.67,138.95,66.9919999999999,95,26,6.263421617752326,JP,1592950259
6,klaksvik,62.23,-6.59,51.799999999999955,81,66,12.750536864710094,FO,1592950259
7,tessalit,20.2,1.01,91.13000000000005,9,0,5.39101646385111,ML,1592950259
8,bredasdorp,-34.53,20.04,48.19999999999993,93,14,3.4672512526843238,ZA,1592950259
9,ribeira grande,38.52,-28.7,61.321999999999946,71,9,17.671796707229777,PT,1592950259
11,butaritari,3.07,172.79,83.53399999999993,72,32,16.195418754473874,KI,1592950259
12,srednekolymsk,67.45,153.68,61.321999999999946,32,55,11.072834645669293,RU,1592950259
13,ayan,56.45,138.17,45.122000000000014,92,100,4.8317823908375095,RU,1592950259
14,hilo,19.73,-155.09,75.19999999999999,83,90,8.05297065139585,US,1592950259
15,lima,-12.04,-77.03,64.39999999999992,77,90,10.28990694345025,PE,1592950040
16,porto novo,6.5,2.6,80.59999999999997,83,40,10.28990694345025,BJ,1592950259
17,faya,18.39,42.45,73.39999999999992,15,99,4.9659985683607735,SA,1592950260
18,nanortalik,60.14,-45.24,42.079999999999984,76,43,6.06209735146743,GL,1592950261
19,ankazoabo,-22.28,44.52,63.589999999999975,77,0,8.097709377236937,MG,1592950261
20,bonfim,3.08,-59.95,80.79799999999994,82,86,4.473872584108805,BR,1592950261
21,thompson,55.74,-97.86,80.59999999999997,32,40,6.9345025053686475,CA,1592950261
22,port blair,11.67,92.75,82.34600000000006,80,100,7.4713672154617035,IN,1592950147
23,carnarvon,-24.87,113.63,55.39999999999992,93,0,9.171438797423049,AU,1592950179
24,punta arenas,-53.15,-70.92,35.599999999999966,59,0,11.40837508947745,CL,1592950261
25,tiksi,71.69,128.87,56.89400000000006,61,1,6.06209735146743,RU,1592950261
26,cherskiy,68.75,161.3,52.61000000000007,44,57,9.28328561202577,RU,1592950261
27,ancud,-41.87,-73.82,42.00799999999998,93,90,6.9345025053686475,CL,1592950261
28,albany,42.6,-73.97,89.00600000000003,54,27,1.0066213314244812,US,1592950224
29,copiapo,-27.37,-70.33,58.99999999999994,77,75,4.6975662133142455,CL,1592950123
31,atuona,-9.8,-139.03,79.77199999999999,71,7,14.495347172512528,PF,1592950262
32,takaka,-40.85,172.8,55.994000000000085,75,43,4.00411596277738,NZ,1592950262
35,omsukchan,62.53,155.8,72.08600000000007,35,1,4.294917680744453,RU,1592950263
36,eberbach,49.47,8.99,66.9919999999999,59,0,1.0066213314244812,DE,1592950064
37,sao geraldo do araguaia,-6.4,-48.55,75.32600000000008,69,0,1.1184681460272012,BR,1592950263
38,port elizabeth,-33.92,25.57,49.99999999999994,81,0,5.8160343593414465,ZA,1592950263
39,new norfolk,-42.78,147.06,53.00600000000003,90,100,2.4829992841803867,AU,1592950263
41,novocheremshansk,54.36,50.17,56.38999999999993,74,100,5.994989262705799,RU,1592950263
42,pacifica,37.61,-122.49,71.99600000000004,56,1,10.28990694345025,US,1592950263
43,saint george,37.1,-113.58,105.80000000000001,9,1,11.40837508947745,US,1592950263
44,bengkulu,-3.8,102.27,74.53399999999993,90,100,3.981746599856836,ID,1592950207
45,arman,59.7,150.17,53.132000000000005,74,8,4.22780959198282,RU,1592950264
46,aquiraz,-3.9,-38.39,80.59999999999997,74,93,11.40837508947745,BR,1592950264
47,ushuaia,-54.8,-68.3,33.799999999999955,86,75,17.2244094488189,AR,1592950264
48,mar del plata,-38,-57.56,53.99600000000004,81,50,4.6975662133142455,AR,1592950264
49,san patricio,19.22,-104.7,89.59999999999997,70,40,11.40837508947745,MX,1592950264
50,taoudenni,22.68,-3.98,98.69,9,0,13.399248389405871,ML,1592950264
51,atar,20.52,-13.05,100.48999999999995,12,2,11.251789549033644,MR,1592950264
52,general roca,-39.03,-67.58,51.799999999999955,57,75,5.8160343593414465,AR,1592950264
53,hambantota,6.12,81.12,76.99999999999994,94,100,3.3554044380816035,LK,1592950264
54,kapaa,22.08,-159.32,82.99400000000009,69,40,10.28990694345025,US,1592950264
55,scottsbluff,41.87,-103.67,87.80000000000001,22,1,8.05297065139585,US,1592950150
57,aranos,-24.13,19.12,52.55599999999998,40,0,12.01234788833214,NA,1592950264
58,berezovyy,51.67,135.7,56.047999999999945,71,92,4.518611309949892,RU,1592950264
59,cockburn town,21.46,-71.14,83.30000000000001,77,13,14.517716535433072,TC,1592949968
60,kahului,20.89,-156.47,87.80000000000001,52,40,26.39584824624195,US,1592950086
61,cidreira,-30.18,-50.21,68.27000000000004,71,33,9.149069434502506,BR,1592950265
62,puerto carreno,6.19,-67.49,89.59999999999997,52,40,6.9345025053686475,CO,1592950203
63,lagoa,39.05,-27.98,61.033999999999935,70,13,15.658554044380816,PT,1592950265
64,chokurdakh,70.63,147.92,71.40199999999999,26,55,8.410880458124552,RU,1592950265
65,songea,-10.68,35.65,62.599999999999966,88,5,2.885647816750179,TZ,1592950265
66,hithadhoo,-0.6,73.08,83.73200000000003,76,100,12.01234788833214,MV,1592950265
67,dikson,73.51,80.55,38.065999999999974,79,17,11.922870436649964,RU,1592950265
69,talnakh,69.49,88.4,53.599999999999966,76,0,6.710808876163207,RU,1592950265
70,provideniya,64.38,-173.3,40.99999999999994,86,75,13.421617752326414,RU,1592950265
71,haapiti,-17.57,-149.87,82.39999999999992,58,40,1.1184681460272012,PF,1592950265
72,mataura,-46.19,168.86,39.00200000000001,83,94,2.9974946313528994,NZ,1592950265
74,meiringen,46.73,8.18,62.599999999999966,82,36,8.05297065139585,CH,1592950265
75,yellowknife,62.46,-114.35,73.99400000000009,42,40,13.869005010737295,CA,1592950150
76,valparaiso,-33.04,-71.63,55.39999999999992,100,90,10.043843951324266,CL,1592950163
77,bethel,41.37,-73.41,82.00399999999996,61,1,11.40837508947745,US,1592950266
78,sao filipe,14.9,-24.5,79.57400000000001,64,0,16.038833214030063,CV,1592950266
79,arraial do cabo,-22.97,-42.03,75.19999999999999,57,20,10.28990694345025,BR,1592950266
80,dongzhen,22.38,110.94,77.68399999999991,92,100,1.6329634931997137,CN,1592950266
81,harlingen,26.19,-97.7,89.00600000000003,78,1,14.987473156764496,US,1592950266
82,riyadh,24.69,46.72,89.59999999999997,10,29,9.171438797423049,SA,1592950153
83,port augusta,-32.5,137.77,39.19999999999993,93,0,5.8160343593414465,AU,1592950266
84,upernavik,72.79,-56.15,34.988,88,0,10.692555476020043,GL,1592950067
85,tuktoyaktuk,69.45,-133.04,37.39999999999998,93,90,16.1059413027917,CA,1592950267
86,lebu,-37.62,-73.65,47.983999999999924,73,51,8.276664280601288,CL,1592950267
87,isangel,-19.55,169.27,76.99999999999994,94,75,7.851646385110952,VU,1592950267
88,petropavlovsk-kamchatskiy,53.05,158.65,62.599999999999966,63,45,6.710808876163207,RU,1592950267
89,new glasgow,45.58,-62.65,78.00799999999998,83,93,7.0687186828919115,CA,1592950267
90,jackson,42.42,-122.83,98.00600000000003,25,1,6.9345025053686475,US,1592950267
91,vaini,-21.2,-175.2,75.19999999999999,83,20,6.9345025053686475,TO,1592950267
92,pangnirtung,66.15,-65.71,39.19999999999993,100,90,8.05297065139585,CA,1592950267
94,nizhneudinsk,54.91,99.03,59.46800000000002,85,100,2.505368647100931,RU,1592950267
95,vestmannaeyjar,63.44,-20.27,50.01800000000003,93,100,22.97333571939871,IS,1592950267
96,qaanaaq,77.48,-69.36,38.13799999999998,77,0,2.259305654974946,GL,1592950267
97,bambous virieux,-20.34,57.76,71.59999999999997,83,20,3.3554044380816035,MU,1592950267
98,san quintin,30.48,-115.95,70.86200000000002,68,16,14.226914817466,MX,1592950267
99,khatanga,71.97,102.5,68.93599999999998,55,33,7.985862562634216,RU,1592950268
100,victoria,22.29,114.16,84.00200000000001,79,100,8.992483894058696,HK,1592950170
101,mehamn,71.04,27.85,44.599999999999966,75,20,6.9345025053686475,NO,1592950268
102,ikalamavony,-21.15,46.58,63.94999999999999,79,41,4.675196850393701,MG,1592950268
103,pisco,-13.7,-76.22,64.39999999999992,82,40,8.05297065139585,PE,1592950268
104,lerwick,60.15,-1.15,55.39999999999992,100,93,3.3554044380816035,GB,1592950268
105,saint-pierre,-21.34,55.48,66.19999999999999,72,75,6.9345025053686475,RE,1592950268
106,bluff,-46.6,168.33,39.00200000000001,83,96,2.9974946313528994,NZ,1592950268
107,owosso,43,-84.18,64.99400000000009,79,98,4.00411596277738,US,1592950268
108,chuy,-33.7,-53.46,67.72999999999996,85,90,9.439871152469577,UY,1592950268
109,barrow,71.29,-156.79,35.599999999999966,80,90,8.05297065139585,US,1592950268
110,iqaluit,63.75,-68.51,42.799999999999955,93,90,13.869005010737295,CA,1592950268
111,airai,-8.93,125.41,56.03000000000003,100,47,3.7133142448103076,TL,1592950268
112,samarai,-10.62,150.67,79.69999999999999,86,68,16.12831066571224,PG,1592950269
113,clyde river,70.47,-68.59,42.799999999999955,81,90,8.05297065139585,CA,1592950269
114,nikolskoye,59.7,30.79,62.599999999999966,63,0,4.473872584108805,RU,1592950269
115,port alfred,-33.59,26.89,57.991999999999905,54,0,7.023979957050823,ZA,1592950269
116,hovd,48.01,91.64,54.06800000000004,40,0,1.7224409448818898,MN,1592950269
117,tura,25.52,90.22,74.714,98,61,4.362025769506085,IN,1592950269
118,sarangani,5.4,125.46,84.488,72,98,12.213672154617036,PH,1592950269
119,saskylakh,71.92,114.08,79.64600000000002,34,37,10.670186113099499,RU,1592950269
120,pak phanang,8.35,100.2,79.33999999999997,84,74,3.0646027201145314,TH,1592950269
121,kloulklubed,7.04,134.26,76.99999999999994,94,75,7.225304223335719,PW,1592950141
123,novoilinsk,51.68,108.71,53.599999999999966,82,65,3.7133142448103076,RU,1592950269
124,sinnamary,5.38,-52.95,77.39600000000002,90,100,7.941123836793128,GF,1592950269
125,opuwo,-18.06,13.84,56.660000000000025,38,0,8.2319255547602,NA,1592950270
126,jamestown,42.1,-79.24,71.00600000000003,100,90,10.28990694345025,US,1592950270
127,vardo,70.37,31.11,40.99999999999994,86,1,9.171438797423049,NO,1592950216
128,bitung,1.45,125.18,75.19999999999999,94,40,2.2369362920544025,ID,1592950270
129,vanimo,-2.67,141.3,79.68199999999996,84,68,4.898890479599141,PG,1592950270
130,okhotsk,59.38,143.3,46.77800000000002,86,97,5.592340730136006,RU,1592950270
132,velizh,55.61,31.2,56.4260000000001,78,5,4.473872584108805,RU,1592950270
134,hobart,-42.88,147.33,53.00600000000003,93,90,8.05297065139585,AU,1592950234
135,flinders,-34.58,150.86,55.00399999999996,69,46,7.001610594130279,AU,1592950270
136,san cristobal,7.77,-72.22,89.59999999999997,46,40,17.2244094488189,VE,1592950001
137,alekseyevskoye,55.31,50.11,58.99999999999994,67,100,8.94774516821761,RU,1592950271
139,gat,31.61,34.76,75.00200000000001,89,0,5.010737294201862,IL,1592950271
141,kosai,34.71,137.53,76.99999999999994,87,58,1.0066213314244812,JP,1592950271
142,egvekinot,66.32,-179.17,36.91399999999999,90,100,4.384395132426628,RU,1592950271
143,podgorodnyaya pokrovka,51.83,54.99,58.99999999999994,54,69,8.94774516821761,RU,1592950271
144,aklavik,68.22,-135.01,42.799999999999955,81,90,8.05297065139585,CA,1592950271
145,cape town,-33.93,18.42,49.99999999999994,93,0,5.8160343593414465,ZA,1592949660
146,shambu,9.57,37.1,52.61000000000007,99,95,1.051360057265569,ET,1592950271
147,miraflores,19.22,-98.81,75.19999999999999,46,90,9.171438797423049,MX,1592950271
148,cortland,42.6,-76.08,80.99600000000004,44,90,11.40837508947745,US,1592950271
149,lorengau,-2.02,147.27,82.83199999999994,77,93,6.956871868289191,PG,1592950272
150,mahebourg,-20.41,57.7,71.59999999999997,83,20,3.3554044380816035,MU,1592950272
151,vao,-22.67,167.48,72.26600000000002,75,0,10.535969935576235,NC,1592950272
152,saint-paul,-21.01,55.27,67.99999999999994,72,10,10.28990694345025,RE,1592950153
153,chakrata,30.7,77.85,61.646000000000015,100,63,1.3197924123120972,IN,1592950272
154,kaitangata,-46.28,169.85,48.00200000000001,80,93,2.885647816750179,NZ,1592950272
155,pitimbu,-7.47,-34.81,76.99999999999994,88,6,8.05297065139585,BR,1592950272
156,binan,14.26,121.05,84.19999999999999,79,20,3.3554044380816035,PH,1592950272
157,yeniseysk,58.45,92.17,56.93000000000001,78,70,1.8342877594846099,RU,1592950272
158,alofi,-19.06,-169.92,78.80000000000001,83,40,4.6975662133142455,NU,1592950272
159,tornio,65.85,24.15,62.599999999999966,93,68,3.3554044380816035,FI,1592950272
160,barcelos,41.54,-8.62,66.00200000000001,100,75,9.171438797423049,PT,1592950272
161,torbay,47.67,-52.73,75.19999999999999,73,40,19.4613457408733,CA,1592950273
162,palivere,58.97,23.89,53.99600000000004,94,0,1.7224409448818898,EE,1592950273
163,tateyama,34.98,139.87,73.99400000000009,100,94,4.00411596277738,JP,1592950273
164,ponta do sol,32.67,-17.1,69.80000000000001,68,20,12.750536864710094,PT,1592950273
165,san jeronimo,-11.95,-75.28,55.83199999999994,51,59,10.938618468146027,PE,1592950273
166,gillette,44.29,-105.5,82.99400000000009,26,1,3.3554044380816035,US,1592950273
168,port lincoln,-34.73,135.87,48.902000000000044,76,0,6.62133142448103,AU,1592950273
169,saint-philippe,-21.36,55.77,66.19999999999999,72,75,6.9345025053686475,RE,1592950273
170,kendrapara,20.5,86.42,84.19999999999999,94,40,8.05297065139585,IN,1592950274
172,bonoua,5.27,-3.6,76.99999999999994,94,40,4.6975662133142455,CI,1592950274
173,skeldon,5.88,-57.13,76.42399999999992,93,100,8.299033643521833,GY,1592950274
174,yuli,9.7,10.27,78.09800000000001,73,0,6.956871868289191,NG,1592950274
175,shushtar,32.05,48.86,85.08199999999994,14,0,1.2526843235504654,IR,1592950274
176,kudahuvadhoo,2.67,72.89,83.642,79,92,13.958482462419472,MV,1592950274
177,planadas,3.2,-75.65,93.19999999999999,38,40,2.2369362920544025,CO,1592950274
178,dingle,11,122.67,78.34999999999997,83,71,3.6014674302075877,PH,1592950275
179,asyut,27.18,31.18,87.80000000000001,33,0,6.9345025053686475,EG,1592950275
180,tongchuan,35.08,109.09,69.20599999999996,68,0,1.3645311381531855,CN,1592950275
181,touros,-5.2,-35.46,76.99999999999994,78,75,4.6975662133142455,BR,1592950269
182,hay river,60.82,-115.8,73.39999999999992,28,75,13.869005010737295,CA,1592950275
183,bagn,60.82,9.55,57.991999999999905,69,7,3.4448818897637796,NO,1592950275
184,manicore,-5.81,-61.3,87.80000000000001,62,69,3.3554044380816035,BR,1592950275
185,broome,42.25,-75.83,78.99799999999999,54,75,9.171438797423049,US,1592950180
186,marsh harbour,26.54,-77.06,83.31800000000004,77,46,6.956871868289191,BS,1592950276
187,belaya gora,68.53,146.42,74.89400000000006,28,52,4.496241947029348,RU,1592950276
188,pevek,69.7,170.31,32.72000000000003,95,100,10.155690765926987,RU,1592950276
189,komsomolskiy,40.43,71.72,78.80000000000001,29,58,2.2369362920544025,UZ,1592950276
190,ampanihy,-24.7,44.75,59.25200000000001,94,10,8.366141732283465,MG,1592950276
191,buckeye,33.37,-112.58,111.9919999999999,6,0,9.171438797423049,US,1592950276
192,georgetown,5.41,100.34,80.59999999999997,94,20,3.3554044380816035,MY,1592950091
193,pangai,-19.8,-174.35,78.80000000000001,78,20,6.9345025053686475,TO,1592950277
194,las lomas,8.43,-82.4,85.99999999999994,74,40,6.9345025053686475,PA,1592950277
195,kavieng,-2.57,150.8,84.19999999999999,75,30,9.104330708661418,PG,1592950277
196,lata,40.16,-8.33,64.00399999999996,96,2,3.5343593414459558,PT,1592950277
197,cabedelo,-6.98,-34.83,76.99999999999994,88,20,8.05297065139585,BR,1592950277
198,udachnyy,66.42,112.4,67.99999999999994,45,12,6.710808876163207,RU,1592950277
199,ketchikan,55.34,-131.65,57.19999999999999,82,75,11.40837508947745,US,1592950194
200,saint-joseph,-21.37,55.62,66.19999999999999,72,75,6.9345025053686475,RE,1592950278
201,saldanha,-33.01,17.94,48.19999999999993,87,0,5.346277738010022,ZA,1592950278
202,puri,19.8,85.85,84.19999999999999,94,40,8.05297065139585,IN,1592950279
203,mogadishu,2.04,45.34,78.07999999999998,85,54,17.940229062276305,SO,1592950279
205,obo,5.4,26.49,68.36000000000007,90,92,1.0737294201861132,CF,1592950279
206,beringovskiy,63.05,179.32,38.80400000000003,76,56,5.0331066571224055,RU,1592950279
208,cuamba,-14.8,36.54,62.54599999999999,89,27,5.077845382963494,MZ,1592950279
209,erdenet,49.03,104.08,49.081999999999994,92,39,7.4713672154617035,MN,1592950279
210,cayenne,4.93,-52.33,80.59999999999997,88,100,3.3554044380816035,GF,1592950279
211,coahuayana,18.73,-103.68,87.80000000000001,58,75,11.40837508947745,MX,1592950279
212,la asuncion,11.03,-63.86,89.59999999999997,59,37,18.342877594846097,VE,1592950280
213,anadyr,64.75,177.48,51.799999999999955,81,75,4.473872584108805,RU,1592950280
214,utete,-7.99,38.76,70.55599999999998,91,54,2.102720114531138,TZ,1592950280
215,hermanus,-34.42,19.23,51.99799999999999,91,0,2.9974946313528994,ZA,1592950280
216,lazaro cardenas,17.96,-102.2,87.54799999999994,60,20,9.372763063707946,MX,1592950146
217,sitka,57.05,-135.33,53.599999999999966,81,75,9.171438797423049,US,1592950280
218,ulladulla,-35.35,150.47,51.99799999999999,66,95,18.342877594846097,AU,1592950280
220,katsuura,35.13,140.3,73.00399999999996,89,99,1.0066213314244812,JP,1592950281
221,kodiak,57.79,-152.41,51.799999999999955,81,75,12.750536864710094,US,1592949997
222,rio grande,-32.03,-52.1,73.99400000000009,70,38,7.829277022190408,BR,1592950246
223,basco,20.45,121.97,84.64999999999992,79,100,11.56496062992126,PH,1592950281
224,gulbene,57.18,26.75,56.372000000000014,81,74,2.05798138869005,LV,1592950281
225,svetlaya,46.54,138.33,50.95400000000001,94,100,5.458124552612742,RU,1592950281
226,qinhuangdao,39.93,119.59,67.28000000000003,83,98,8.701682176091625,CN,1592950281
227,castro,-24.79,-50.01,57.523999999999944,89,0,3.825161059413028,BR,1592950282
229,longyearbyen,78.22,15.64,42.799999999999955,81,75,3.3554044380816035,SJ,1592950282
230,kibaya,-5.3,36.57,57.00200000000001,96,2,5.592340730136006,TZ,1592950282
231,luderitz,-26.65,15.16,64.39999999999992,44,0,1.1184681460272012,NA,1592950282
232,antalaha,-14.9,50.28,71.00600000000003,81,47,7.56084466714388,MG,1592950282
233,channahon,41.43,-88.23,76.99999999999994,44,75,10.28990694345025,US,1592950053
234,sisophon,13.59,102.97,78.45799999999991,84,99,5.234430923407301,KH,1592950282
235,ixtapa,20.7,-105.2,87.99799999999999,70,20,19.4613457408733,MX,1592950282
236,nyazepetrovsk,56.05,59.6,45.39199999999994,95,58,5.704187544738725,RU,1592950283
239,deputatskiy,69.3,139.9,73.72399999999999,48,0,3.758052970651396,RU,1592950283
240,itarema,-2.92,-39.92,76.98200000000003,71,64,14.115068002863278,BR,1592950283
241,plymouth,41.83,-70.83,80.59999999999997,65,1,10.28990694345025,US,1592950283
242,ballina,-28.87,153.57,51.00799999999998,76,0,8.05297065139585,AU,1592950283
243,yulara,-25.24,130.99,31.999999999999943,83,0,5.8160343593414465,AU,1592950283
244,boone,39.03,-92.33,78.00799999999998,39,2,5.994989262705799,US,1592950177
245,kirakira,-10.45,161.92,82.84999999999997,74,90,3.1988188976377954,SB,1592950283
246,wamba,8.93,8.6,74.69599999999997,78,30,1.5211166785969936,NG,1592950283
247,sabinas hidalgo,26.5,-100.17,98.67199999999997,32,97,12.39262705798139,MX,1592950283
248,saint-denis,48.92,2.33,73.99400000000009,52,94,5.8160343593414465,FR,1592950284
249,hong gai,20.96,107.09,85.99999999999994,84,100,8.05297065139585,VN,1592950284
250,hammerfest,70.66,23.68,51.799999999999955,87,64,9.171438797423049,NO,1592950284
251,avarua,-21.21,-159.78,80.59999999999997,69,40,10.28990694345025,CK,1592950284
252,vila franca do campo,37.72,-25.43,62.599999999999966,93,75,19.4613457408733,PT,1592950284
253,xining,36.62,101.77,49.99999999999994,54,0,2.863278453829635,CN,1592950284
254,matagami,49.75,-77.63,66.19999999999999,93,90,5.8160343593414465,CA,1592950284
255,abha,18.22,42.51,73.39999999999992,15,97,8.321403006442377,SA,1592950284
256,novyy urgal,51.07,132.56,55.52600000000001,65,100,4.988367931281317,RU,1592950284
257,cabra,37.47,-4.44,80.99600000000004,36,4,3.489620615604868,ES,1592950285
258,tokur,53.13,132.9,52.843999999999994,68,99,3.1988188976377954,RU,1592950285
259,kalanchak,46.26,33.29,71.78000000000003,66,100,4.00411596277738,UA,1592950285
260,east london,-33.02,27.91,67.71200000000005,29,0,6.643700787401575,ZA,1592950285
261,kauhajoki,62.43,22.18,58.99999999999994,87,0,2.4829992841803867,FI,1592950285
262,sorland,67.67,12.69,53.92399999999992,93,100,20.333750894774518,NO,1592950285
263,pekalongan,-6.89,109.68,77.16199999999998,81,65,4.473872584108805,ID,1592950285
264,bilma,18.69,12.92,87.60200000000003,12,0,4.33965640658554,NE,1592950285
266,port hedland,-20.32,118.57,58.99999999999994,67,0,8.05297065139585,AU,1592950121
268,pimentel,-6.84,-79.93,67.99999999999994,72,74,20.80350751610594,PE,1592950286
269,vilhena,-12.74,-60.15,82.39999999999992,48,76,6.9345025053686475,BR,1592950286
270,ewa beach,21.32,-158.01,85.99999999999994,61,75,11.40837508947745,US,1592950216
271,ahipara,-35.17,173.17,60.71000000000009,84,91,13.488725841088046,NZ,1592950286
272,faanui,-16.48,-151.75,78.81800000000004,80,100,17.06782390837509,PF,1592950286
273,ostrovnoy,68.05,39.51,40.38799999999998,78,99,13.28740157480315,RU,1592950286
274,vilyuysk,63.76,121.62,66.72200000000004,54,0,5.927881173944166,RU,1592950287
275,santo domingo,18.5,-69.99,89.59999999999997,66,20,9.171438797423049,DO,1592950109
276,mayo,38.89,-76.51,87.99799999999999,70,1,10.28990694345025,US,1592950287
278,swan hill,-35.34,143.55,45.75200000000001,95,0,5.83840372226199,AU,1592950287
279,lucea,18.45,-78.17,89.00600000000003,70,20,20.80350751610594,JM,1592950287
281,alekseyevsk,57.84,108.35,60.06200000000007,66,0,2.818539727988547,RU,1592950287
282,itacarambi,-15.1,-44.09,72.32,64,23,4.787043664996421,BR,1592950287
284,leshukonskoye,64.9,45.76,37.94,78,99,6.9345025053686475,RU,1592950287
285,namatanai,-3.67,152.43,82.95799999999991,72,2,6.2186828919112385,PG,1592950288
287,sisimiut,66.94,-53.67,42.889999999999986,67,24,7.381889763779527,GL,1592950288
288,adrar,20.5,-10.07,101.47999999999996,12,48,6.420007158196135,MR,1592950288
289,esperance,-33.87,121.9,49.99999999999994,87,0,14.987473156764496,AU,1592950288
290,kupang,-10.17,123.58,71.59999999999997,83,20,8.05297065139585,ID,1592950288
291,bhadrachalam,17.67,80.88,79.95200000000006,83,38,1.4987473156764497,IN,1592950288
292,constitucion,-35.33,-72.42,49.603999999999985,82,97,7.941123836793128,CL,1592950288
293,port hawkesbury,45.62,-61.35,76.99999999999994,78,1,11.40837508947745,CA,1592950145
294,takoradi,4.88,-1.76,77.64799999999997,87,100,7.851646385110952,GH,1592950288
295,tasiilaq,65.61,-37.64,46.39999999999998,75,100,10.28990694345025,GL,1592950288
296,verkhnevilyuysk,63.45,120.32,64.90400000000005,60,7,7.001610594130279,RU,1592950288
297,olafsvik,64.89,-23.71,51.04400000000004,74,100,9.685934144595562,IS,1592950289
298,guia lopes da laguna,-21.46,-56.11,75.38000000000005,46,0,6.420007158196135,BR,1592950289
299,tra vinh,9.93,106.35,78.06200000000007,89,97,3.0198639942734435,VN,1592950289
300,orsha,54.52,30.41,58.19,90,85,4.294917680744453,BY,1592950289
301,qaqortoq,60.72,-46.03,57.19999999999999,50,75,13.869005010737295,GL,1592950289
303,urumqi,43.8,87.6,69.80000000000001,35,100,2.2369362920544025,CN,1592950290
305,twentynine palms,34.14,-116.05,105.80000000000001,8,1,13.869005010737295,US,1592950290
306,kodinsk,58.69,99.18,63.73399999999998,66,10,0.961882605583393,RU,1592950290
307,murayama,38.52,140.33,64.39999999999992,88,75,5.8160343593414465,JP,1592950290
308,trairi,-3.28,-39.27,77.95400000000001,67,99,8.992483894058696,BR,1592950060
309,charleston,32.78,-79.93,82.39999999999992,88,40,16.1059413027917,US,1592950291
310,boda,4.32,17.47,70.57400000000001,94,99,1.051360057265569,CF,1592950291
311,aras,42.56,-2.36,75.19999999999999,60,0,5.8160343593414465,ES,1592950291
312,te anau,-45.42,167.72,42.926000000000045,87,39,0.8276664280601288,NZ,1592950291
313,souillac,-20.52,57.52,71.59999999999997,83,20,3.3554044380816035,MU,1592950291
314,tromso,69.65,18.96,53.599999999999966,81,69,11.40837508947745,NO,1592950071
315,manoel urbano,-8.84,-69.26,81.87799999999999,70,97,2.438260558339299,BR,1592950291
316,belmonte,-15.86,-38.88,73.39999999999992,60,20,2.2369362920544025,BR,1592950291
317,sayyan,15.17,44.32,66.25399999999996,32,38,6.308160343593414,YE,1592950291
318,cabo san lucas,22.89,-109.91,89.00600000000003,31,5,18.342877594846097,MX,1592950291
320,mutoko,-17.4,32.23,54.103999999999985,74,57,3.6014674302075877,ZW,1592950292
321,cap malheureux,-19.98,57.61,67.99999999999994,85,4,1.990873299928418,MU,1592950292
323,urucara,-2.54,-57.76,80.43800000000005,74,45,1.968503937007874,BR,1592950292
324,ajuchitlan,20.72,-100.02,62.599999999999966,88,90,4.6975662133142455,MX,1592950292
325,bassila,9.01,1.67,75.61399999999998,72,15,1.5211166785969936,BJ,1592950292
326,jalu,29.03,21.55,74.786,44,0,10.066213314244811,LY,1592950292
327,lamu,-2.27,40.9,76.6760000000001,87,99,16.508589835361487,KE,1592950292
328,sal rei,16.18,-22.92,76.99999999999994,78,20,18.342877594846097,CV,1592950293
329,saint-augustin,51.23,-58.65,66.77600000000001,81,100,14.562455261274158,CA,1592950293
330,ust-kuyga,70.02,135.6,77.27000000000004,39,1,4.272548317823908,RU,1592950293
331,buraydah,26.33,43.98,80.59999999999997,19,8,8.05297065139585,SA,1592950293
332,bodden town,19.28,-81.25,89.59999999999997,70,20,10.28990694345025,KY,1592950293
333,henties bay,-22.12,14.28,66.9919999999999,38,0,1.990873299928418,NA,1592950293
335,avera,33.19,-82.53,84.19999999999999,66,1,9.171438797423049,US,1592950294
336,ambulu,-8.35,113.61,72.94999999999999,88,100,3.086972083035075,ID,1592950294
337,jose bonifacio,-21.05,-49.69,78.80000000000001,22,100,3.3554044380816035,BR,1592950294
338,strezhevoy,60.73,77.59,42.799999999999955,100,65,2.2369362920544025,RU,1592950294
340,kalmunai,7.42,81.82,81.464,77,100,3.176449534717251,LK,1592950294
341,vondrozo,-22.82,47.28,58.02800000000008,100,99,3.0646027201145314,MG,1592950294
342,kindu,-2.95,25.95,71.16800000000006,71,0,0.6710808876163207,CD,1592950295
343,lasa,46.62,10.7,60.80000000000001,67,5,3.3554044380816035,IT,1592950295
344,nemuro,43.32,145.57,51.06200000000001,95,100,12.101825340014317,JP,1592950295
345,mucurapo,10.67,-61.53,85.99999999999994,62,20,12.750536864710094,TT,1592950295
346,zafra,38.42,-6.42,84.9919999999999,38,100,4.00411596277738,ES,1592950295
347,abong mbang,3.98,13.18,68.37799999999999,98,100,0.17895490336435219,CM,1592950295
348,correia pinto,-27.58,-50.36,58.06400000000002,90,10,2.3487831066571228,BR,1592950295
349,sibolga,1.74,98.78,76.44199999999995,75,100,3.0198639942734435,ID,1592950295
350,lompoc,34.64,-120.46,69.99799999999999,60,75,14.987473156764496,US,1592950295
351,high level,58.52,-117.14,71.59999999999997,35,75,9.171438797423049,CA,1592950089
352,porto nacional,-10.71,-48.42,84.19999999999999,54,20,3.3554044380816035,BR,1592950296
353,njombe,-9.33,34.77,52.30400000000003,94,25,6.509484609878311,TZ,1592950296
354,praya,14.92,-23.51,76.99999999999994,78,20,23.040443808160347,CV,1592950296
355,yumen,40.28,97.2,60.40400000000005,29,1,5.323908375089477,CN,1592950296
356,mareeba,-17,145.43,67.99999999999994,72,40,8.05297065139585,AU,1592950296
357,nenjiang,49.18,125.22,54.64400000000006,91,100,12.325518969219756,CN,1592950296
358,yar-sale,66.83,70.83,45.08600000000001,72,60,5.637079455977094,RU,1592950297
359,danville,36.59,-79.39,82.99400000000009,65,75,9.171438797423049,US,1592950297
360,leningradskiy,69.38,178.42,33.079999999999984,92,99,13.265032211882605,RU,1592950297
361,alice springs,-23.7,133.88,31.999999999999943,81,0,4.6975662133142455,AU,1592950297
362,eureka,40.8,-124.16,71.00600000000003,87,40,4.6975662133142455,US,1592950241
363,qui nhon,13.77,109.23,79.50200000000001,80,100,2.5948460987831066,VN,1592950297
364,porto walter,-8.27,-72.74,84.344,65,74,2.4158911954187547,BR,1592950297
365,waipawa,-41.41,175.52,48.99199999999996,85,5,1.700071581961346,NZ,1592950297
366,yarmouth,41.71,-70.23,75.19999999999999,83,90,9.171438797423049,US,1592950013
367,proletariy,58.43,31.7,57.920000000000016,63,0,4.1159627773801,RU,1592950297
368,havoysund,71,24.66,51.799999999999955,87,84,9.171438797423049,NO,1592950297
369,hualmay,-11.1,-77.61,65.084,75,72,10.960987831066571,PE,1592950297
370,san jose,37.34,-121.89,93.9919999999999,48,20,10.28990694345025,US,1592950086
371,bo rai,12.57,102.54,76.82,90,95,0.7158196134574087,TH,1592950298
372,norman wells,65.28,-126.83,51.799999999999955,81,90,13.869005010737295,CA,1592950298
373,asau,46.43,26.4,60.99799999999999,93,23,3.3777738010021476,RO,1592950298
374,arona,28.1,-16.68,73.99400000000009,68,20,16.1059413027917,ES,1592950298
375,guerrero negro,27.98,-114.06,74.46200000000005,55,3,18.52183249821045,MX,1592950298
376,kolyvan,55.31,82.74,53.599999999999966,100,100,4.473872584108805,RU,1592950298
377,lakes entrance,-37.88,147.98,51.99799999999999,97,36,9.596456692913385,AU,1592950298
378,vostok,46.49,135.88,53.23999999999995,100,100,3.5567287043665,RU,1592950298
380,preobrazheniye,42.9,133.91,59.396000000000015,83,100,9.305654974946314,RU,1592950298
381,bunda,-2.05,33.87,66.19999999999999,93,75,2.2816750178954903,TZ,1592950299
382,fare,-16.7,-151.02,79.41199999999998,78,57,17.425733715103796,PF,1592950299
383,aksarayskiy,46.79,48.01,71.59999999999997,49,0,6.710808876163207,RU,1592950299
384,guanica,17.97,-66.91,87.00799999999998,65,60,1.990873299928418,PR,1592950299
385,rudbar,30.15,62.6,85.85599999999994,17,0,7.292412312097351,AF,1592950299
386,hamilton,39.18,-84.53,78.99799999999999,47,40,10.28990694345025,US,1592950299
387,gazojak,41.19,61.4,80.63600000000002,24,0,10.960987831066571,TM,1592950299
388,sobolevo,54.43,31.9,57.613999999999976,90,49,4.362025769506085,RU,1592950300
389,ekhabi,53.51,142.97,42.926000000000045,94,100,10.066213314244811,RU,1592950300
390,qandala,11.47,49.87,91.45400000000001,49,28,3.8027916964924837,SO,1592950300
391,koumac,-20.57,164.28,73.77800000000008,69,0,7.985862562634216,NC,1592950300
392,siloam springs,36.19,-94.54,82.39999999999992,54,1,12.750536864710094,US,1592950300
393,usogorsk,63.41,48.69,40.51400000000001,70,100,7.851646385110952,RU,1592950300
394,saint-georges,12.06,-61.75,84.19999999999999,74,20,13.869005010737295,GD,1592950300
395,ambilobe,-13.2,49.05,68.86399999999998,84,0,3.5119899785254116,MG,1592950300
396,melbourne,28.08,-80.61,93.9919999999999,74,20,11.40837508947745,US,1592950012
397,pozo colorado,-23.49,-58.8,81.28399999999993,46,0,8.90300644237652,PY,1592950300
398,tuatapere,-46.13,167.68,39.00200000000001,83,71,2.9974946313528994,NZ,1592950300
399,tautira,-17.73,-149.15,82.39999999999992,58,40,1.1184681460272012,PF,1592950301
400,kalevala,65.2,31.17,51.115999999999985,78,13,3.914638511095204,RU,1592950301
402,balabac,7.99,117.06,82.92199999999997,74,66,5.793664996420902,PH,1592950301
403,akyab,20.15,92.9,82.76000000000005,85,94,5.905511811023622,MM,1592950301
404,pyinmana,19.73,96.22,78.31400000000002,86,100,5.279169649248389,MM,1592950301
405,porbandar,21.64,69.61,84.79400000000004,81,70,9.350393700787402,IN,1592950301
406,ust-maya,60.42,134.53,62.797999999999945,65,0,7.426628489620615,RU,1592950301
407,necochea,-38.55,-58.74,48.99199999999996,96,76,1.0066213314244812,AR,1592950301
408,churapcha,62,132.43,65.17399999999992,62,72,6.867394416607015,RU,1592950302
409,kendari,-3.94,122.5,71.38399999999996,93,28,4.921259842519685,ID,1592950302
410,matay,28.42,30.78,79.75399999999996,34,0,15.300644237652111,EG,1592950302
411,presidente medici,-11.18,-61.9,78.04400000000004,73,10,2.885647816750179,BR,1592950302
412,bonavista,48.65,-53.11,63.914000000000044,83,66,17.336256263421618,CA,1592950230
413,berlevag,70.86,29.09,44.599999999999966,75,0,6.9345025053686475,NO,1592950302
414,amapa,1,-52,74.44400000000002,96,100,2.438260558339299,BR,1592950302
415,tilichiki,60.47,166.1,64.68800000000005,44,0,5.323908375089477,RU,1592950302
416,severomuysk,56.15,113.43,51.00799999999998,84,76,3.937007874015748,RU,1592950302
418,la romana,18.43,-68.97,89.59999999999997,66,40,10.28990694345025,DO,1592950193
419,katangli,51.71,143.23,42.45799999999997,94,100,9.484609878310666,RU,1592950303
420,moyale,3.52,39.06,67.17199999999997,87,39,5.346277738010022,KE,1592950303
421,mendi,-6.18,143.65,56.533999999999935,92,5,2.5948460987831066,PG,1592950303
422,alta floresta,-9.88,-56.09,75.30799999999994,62,72,4.406764495347173,BR,1592950303
423,petropavlovka,50.61,105.32,56.4260000000001,74,87,2.9974946313528994,RU,1592950303
424,valdivia,-39.81,-73.25,44.599999999999966,93,90,9.171438797423049,CL,1592950303
426,kothi,24.75,80.78,84.88399999999996,68,50,8.500357909806729,IN,1592950303
427,toccoa,34.58,-83.33,85.99999999999994,55,1,8.05297065139585,US,1592950119
428,ilulissat,69.22,-51.1,40.99999999999994,80,95,4.6975662133142455,GL,1592950304
429,kargasok,59.06,80.86,50.702000000000055,91,18,3.914638511095204,RU,1592950304
430,husavik,66.04,-17.34,51.799999999999955,81,75,16.1059413027917,IS,1592950304
431,tobermory,45.25,-81.67,69.00799999999998,90,90,2.9974946313528994,CA,1592950304
432,sambava,-14.27,50.17,70.844,85,27,11.497852541159627,MG,1592950304
433,gizo,-8.1,156.84,82.77800000000008,68,83,6.9345025053686475,SB,1592950304
434,emerald,-23.53,148.17,44.99599999999998,70,0,5.8160343593414465,AU,1592950305
435,staryy nadym,65.61,72.68,47.40799999999996,75,62,4.473872584108805,RU,1592950305
436,bara,10.37,10.73,79.88000000000005,71,1,11.251789549033644,NG,1592950305
437,artesia,33.87,-118.08,87.00799999999998,64,1,9.171438797423049,US,1592950305
438,shiloh,38.56,-89.9,82.39999999999992,42,20,9.171438797423049,US,1592950305
440,mimongo,-1.62,11.61,70.46599999999995,85,84,1.4316392269148175,GA,1592950306
441,kety,49.88,19.22,57.00200000000001,1,29,4.00411596277738,PL,1592950306
442,canaries,28,-15.5,71.99600000000004,68,40,25.27738010021475,ES,1592950306
443,beni mazar,28.5,30.8,79.53799999999995,35,0,14.763779527559054,EG,1592950133
444,roald,62.58,6.13,58.99999999999994,93,87,10.28990694345025,NO,1592950306
445,boysun,38.21,67.2,74.33600000000007,20,35,5.748926270579814,UZ,1592950306
446,ouesso,1.61,16.05,74.06599999999997,78,98,1.028990694345025,CG,1592950306
447,severo-kurilsk,50.68,156.12,48.27199999999999,81,40,9.484609878310666,RU,1592950307
448,praia da vitoria,38.73,-27.07,60.80000000000001,93,75,15.099319971367215,PT,1592950307
449,moratuwa,6.77,79.88,80.59999999999997,94,20,1.1184681460272012,LK,1592950307
450,kousseri,12.08,15.03,89.59999999999997,46,1,5.8160343593414465,CM,1592950307
451,rapid valley,44.06,-103.15,80.99600000000004,31,1,4.6975662133142455,US,1592950307
452,caiaponia,-16.96,-51.81,65.642,56,17,2.3040443808160345,BR,1592950307
453,nishihara,26.18,127.76,80.59999999999997,94,75,8.05297065139585,JP,1592950307
454,dongsheng,39.82,109.98,68.95400000000001,37,17,9.484609878310666,CN,1592950307
455,willowmore,-33.29,23.49,52.24999999999994,42,0,6.196313528990695,ZA,1592950307
456,sanford,28.8,-81.27,87.80000000000001,66,1,14.987473156764496,US,1592950308
457,rovenki,48.08,39.38,67.08199999999994,79,0,2.9080171796707233,UA,1592950308
458,beni suef,29.07,31.1,78.34999999999997,37,0,12.370257695060845,EG,1592950308
459,lavrentiya,65.58,-171,40.44199999999995,70,100,9.574087329992842,RU,1592950308
460,bathsheba,13.22,-59.52,84.19999999999999,74,20,18.342877594846097,BB,1592950308
461,rio gallegos,-51.62,-69.22,35.599999999999966,80,75,16.1059413027917,AR,1592950052
462,haines junction,60.75,-137.51,56.31800000000004,42,75,10.670186113099499,CA,1592950308
463,abnub,27.27,31.15,87.80000000000001,33,0,6.9345025053686475,EG,1592950308
464,leh,34.17,77.58,57.488,38,0,5.883142448103078,IN,1592950308
465,kasongo,-4.45,26.67,73.94,50,0,2.1474588403722263,CD,1592950309
466,sioux lookout,50.1,-91.92,71.59999999999997,49,75,11.40837508947745,CA,1592950309
467,midland,32,-102.08,89.99600000000004,33,1,9.171438797423049,US,1592950136
468,shetpe,44.17,52.12,74.89400000000006,29,0,5.771295633500358,KZ,1592950309
469,taft,31.75,54.21,84.19999999999999,16,0,9.171438797423049,IR,1592950309
470,coquimbo,-29.95,-71.34,55.39999999999992,100,90,4.6975662133142455,CL,1592950309
471,pangody,65.85,74.49,47.19199999999995,74,7,5.212061560486758,RU,1592950309
472,warwick,41.7,-71.42,78.99799999999999,78,40,14.987473156764496,US,1592950310
473,ialibu,-6.28,143.99,60.80000000000001,93,75,3.3554044380816035,PG,1592950310
474,aktanysh,55.72,54.08,55.29199999999997,83,96,11.632068718682893,RU,1592950310
475,hobyo,5.35,48.53,78.53000000000003,80,7,25.90372226198998,SO,1592950310
476,phan thiet,10.93,108.1,78.00799999999998,85,100,4.33965640658554,VN,1592950310
477,labuhan,-6.88,112.21,76.28000000000003,87,36,6.9345025053686475,ID,1592950310
478,benghazi,32.12,20.07,72.21200000000005,72,0,7.44899785254116,LY,1592950310
479,sola,-13.88,167.55,81.35599999999994,79,20,5.994989262705799,VU,1592950310
480,shellbrook,53.22,-106.4,78.80000000000001,36,90,9.171438797423049,CA,1592950179
482,galle,6.04,80.22,80.88799999999998,85,96,10.200429491768073,LK,1592950311
483,dunedin,-45.87,170.5,48.00200000000001,80,68,3.847530422333572,NZ,1592950252
484,russellville,35.28,-93.13,87.00799999999998,66,1,6.9345025053686475,US,1592950045
485,piste,20.7,-88.58,91.14799999999997,49,97,7.359520400858984,MX,1592950311
486,vila,42.03,-8.16,71.99600000000004,93,75,4.6975662133142455,PT,1592950311
487,codrington,-38.27,141.97,48.32600000000002,96,19,6.554223335719399,AU,1592950311
488,toma,12.77,-2.88,88.55599999999998,39,10,11.318897637795274,BF,1592950312
489,el bordo,2.12,-76.98,79.24999999999994,68,51,2.6172154617036507,CO,1592950312
490,pochutla,15.74,-96.47,84.19999999999999,70,90,11.40837508947745,MX,1592950312
491,neuquen,-38.95,-68.06,51.799999999999955,57,75,5.8160343593414465,AR,1592950312
492,kidal,18.44,1.41,91.52600000000001,17,13,4.33965640658554,ML,1592950312
493,popricani,47.3,27.52,62.99600000000004,93,23,1.1184681460272012,RO,1592950312
494,puerto ayora,-0.74,-90.35,71.99600000000004,86,85,1.990873299928418,EC,1592950312
495,ravar,31.27,56.81,79.214,17,0,7.0687186828919115,IR,1592950312
496,puerto madero,14.72,-92.42,87.80000000000001,79,90,6.9345025053686475,MX,1592950312
497,port hardy,50.7,-127.42,58.99999999999994,93,90,5.8160343593414465,CA,1592950313
498,portland,45.52,-122.68,91.99400000000009,35,40,9.171438797423049,US,1592950151
499,pareora,-44.49,171.21,42.00799999999998,97,70,2.952755905511811,NZ,1592950313
500,sedan,49.67,5,67.99999999999994,36,0,5.83840372226199,FR,1592950313
501,nikolsk,53.72,46.07,54.589999999999975,97,100,2.505368647100931,RU,1592950313
502,taitung,22.76,121.14,82.48999999999995,62,100,4.988367931281317,TW,1592950313
503,sinazongwe,-17.26,27.46,63.608000000000004,49,0,3.400143163922692,ZM,1592950314
504,gorontalo,0.54,123.06,75.03799999999995,91,99,5.480493915533286,ID,1592950314
505,salalah,17.02,54.09,82.39999999999992,94,20,2.2369362920544025,OM,1592950253
506,port-gentil,-0.72,8.78,75.19999999999999,94,75,10.28990694345025,GA,1592950314
508,verkhoyansk,67.54,133.38,81.84199999999993,33,0,4.317287043664996,RU,1592950314
509,camana,-16.62,-72.71,63.94999999999999,70,4,7.023979957050823,PE,1592950314
510,los pozos,8.45,-62.73,87.00799999999998,62,17,4.00411596277738,VE,1592950314
511,namibe,-15.2,12.15,69.74600000000004,74,0,8.992483894058696,AO,1592950315
513,carmarthen,51.86,-4.31,67.99999999999994,82,0,2.2369362920544025,GB,1592950315
514,picui,-6.51,-36.35,71.02399999999994,82,0,14.316392269148176,BR,1592950315
515,vila velha,-20.33,-40.29,69.99799999999999,77,92,3.3554044380816035,BR,1592950084
516,krasnokamensk,50.1,118.04,56.858000000000004,83,69,9.193808160343595,RU,1592950315
517,dhidhdhoo,6.88,73.1,83.80400000000003,78,98,16.530959198282034,MV,1592950315
518,la libertad,-2.23,-80.9,78.80000000000001,74,40,11.40837508947745,EC,1592950315
519,zhigansk,66.77,123.37,69.17000000000002,41,4,2.0803507516105944,RU,1592950316
520,del rio,29.36,-100.9,96.80000000000001,39,1,8.05297065139585,US,1592950316
521,prince rupert,54.32,-130.32,57.19999999999999,71,1,10.28990694345025,CA,1592950206
522,nalut,30.33,10.85,73.77800000000008,45,0,17.492841803865428,LY,1592950316
523,mount gambier,-37.83,140.77,49.99999999999994,100,90,6.9345025053686475,AU,1592950316
524,guisa,20.25,-76.54,91.39999999999992,63,40,9.171438797423049,CU,1592950316
525,vrangel,42.73,133.08,59.57600000000008,84,100,7.695060844667144,RU,1592950316
526,kamenka,51.32,42.77,64.00399999999996,61,58,8.634574087329993,RU,1592950316
527,colomi,-17.35,-65.87,66.19999999999999,24,47,6.9345025053686475,BO,1592950316
528,haverfordwest,51.8,-4.97,67.99999999999994,82,17,2.2369362920544025,GB,1592950316
529,houma,29.6,-90.72,73.39999999999992,94,90,11.40837508947745,US,1592950053
530,callaway,30.15,-85.57,82.00399999999996,74,90,8.05297065139585,US,1592950088
532,birjand,32.87,59.22,76.99999999999994,23,0,9.171438797423049,IR,1592950317
533,latehar,23.75,84.5,80.54599999999999,71,30,7.3371510379384395,IN,1592950317
534,pueblo,38.25,-104.61,89.00600000000003,30,1,11.40837508947745,US,1592950113
535,saint-francois,46.42,3.91,69.80000000000001,60,41,3.3554044380816035,FR,1592950318
536,vanavara,60.34,102.28,63.62600000000003,70,47,2.3487831066571228,RU,1592950318
537,varadero,23.15,-81.25,89.59999999999997,70,40,11.40837508947745,CU,1592950318
539,hailey,43.52,-114.32,80.59999999999997,32,20,13.869005010737295,US,1592950319
540,bilibino,68.05,166.44,54.37399999999997,42,81,3.3777738010021476,RU,1592950319
541,ndioum,16.51,-14.65,90.73399999999998,45,2,19.79688618468146,SN,1592950319
542,sao joao da barra,-21.64,-41.05,69.80000000000001,83,99,4.6975662133142455,BR,1592950319
543,caravelas,-17.71,-39.25,68.71999999999997,62,0,2.706692913385827,BR,1592950319
544,baykit,61.67,96.37,63.05000000000001,70,67,1.5882247673586256,RU,1592950319
545,astoria,46.19,-123.83,76.99999999999994,56,1,19.4613457408733,US,1592950186
546,novikovo,51.15,37.89,57.19999999999999,91,41,11.542591267000716,RU,1592950319
547,gurupi,-11.73,-49.07,77.28799999999995,53,0,4.496241947029348,BR,1592950269
548,karasuk,53.74,78.04,58.65799999999996,88,22,5.681818181818182,RU,1592950320
549,ucluelet,48.93,-125.55,60.99799999999999,93,90,5.8160343593414465,CA,1592950274
551,uberlandia,-18.92,-48.28,67.99999999999994,45,97,5.8160343593414465,BR,1592950320
552,paamiut,61.99,-49.67,40.19,78,0,16.553328561202576,GL,1592950050
553,razdolnoye,43.55,131.92,58.99999999999994,100,40,4.473872584108805,RU,1592950321
554,bere,9.32,16.16,85.15400000000005,48,39,3.221188260558339,TD,1592950321
555,sangar,63.92,127.47,69.20599999999996,47,21,0.9171438797423049,RU,1592950322
556,thinadhoo,0.53,72.93,83.96599999999995,76,99,9.931997136721547,MV,1592950322
557,severo-yeniseyskiy,60.37,93.04,58.712000000000046,76,97,2.773801002147459,RU,1592950322
559,richards bay,-28.78,32.04,61.55599999999998,71,0,8.477988546886184,ZA,1592950322
560,padang,-0.95,100.35,75.29000000000002,83,100,6.755547602004295,ID,1592950322
561,batemans bay,-35.72,150.18,60.00799999999998,85,84,1.990873299928418,AU,1592950322
563,shingu,33.73,135.98,71.94199999999995,79,67,3.6014674302075877,JP,1592950323
564,kyshtovka,56.55,76.63,51.98000000000002,91,100,4.272548317823908,RU,1592950323
565,bull savanna,17.89,-77.59,84.488,65,0,15.72566213314245,JM,1592950323
566,nerchinskiy zavod,51.31,119.61,53.85200000000003,88,97,2.5501073729420183,RU,1592950323
567,buriti bravo,-5.84,-43.83,75.46999999999997,61,2,2.885647816750179,BR,1592950323
568,cape coast,5.11,-1.25,77.57600000000008,88,97,8.768790264853257,GH,1592950323
569,jacmel,18.23,-72.53,89.59999999999997,70,20,10.28990694345025,HT,1592950323
570,qasigiannguit,68.82,-51.19,40.99999999999994,80,86,4.6975662133142455,GL,1592950324
571,dekar,-21.53,21.93,48.847999999999956,48,0,6.196313528990695,BW,1592950324
572,fairlie,55.76,-4.86,60.99799999999999,89,100,4.00411596277738,GB,1592950324
575,peniche,39.36,-9.38,64.99400000000009,88,14,12.996599856836077,PT,1592950324
576,puerto del rosario,28.5,-13.86,73.39999999999992,69,40,18.342877594846097,ES,1592950324
577,riviere-au-renard,49,-64.4,67.99999999999994,94,90,4.6975662133142455,CA,1592950324
578,constantine,36.37,6.61,69.80000000000001,49,0,4.6975662133142455,DZ,1592950325
579,oxbow,49.23,-102.17,78.00799999999998,45,95,1.0066213314244812,CA,1592950325
580,iranshahr,27.2,60.68,100.39999999999992,33,0,4.6975662133142455,IR,1592950325
581,ilhabela,-23.78,-45.36,71.16800000000006,69,100,3.3330350751610593,BR,1592950325
582,arkhipo-osipovka,44.37,38.52,74.44400000000002,75,68,11.430744452397997,RU,1592950325
583,narsaq,60.92,-46.05,57.19999999999999,50,75,13.869005010737295,GL,1592950325
584,auki,-8.77,160.7,81.33800000000002,75,0,2.4829992841803867,SB,1592950325
585,masuguru,-11.37,38.42,70.26800000000009,70,52,4.787043664996421,TZ,1592950325
586,imbituba,-28.24,-48.67,73.39999999999992,69,0,10.28990694345025,BR,1592950325
587,grindavik,63.84,-22.43,49.99999999999994,93,75,9.171438797423049,IS,1592950326
588,limon,10,-83.03,85.99999999999994,74,96,5.8160343593414465,CR,1592950326
589,aransas pass,27.91,-97.15,85.99999999999994,79,1,16.1059413027917,US,1592950326
590,newport,51.59,-3,69.00799999999998,74,0,4.652827487473157,GB,1592950068
591,el alto,-4.27,-81.21,69.15199999999999,75,7,19.304760200429495,PE,1592950326
592,kanye,-24.97,25.33,45.69799999999998,57,0,4.473872584108805,BW,1592950326
593,port keats,-14.25,129.55,63.428000000000054,46,0,9.439871152469577,AU,1592950326
594,superior,46.72,-92.1,76.99999999999994,36,1,9.171438797423049,US,1592950184
595,byron bay,-28.65,153.62,51.00799999999998,76,0,8.05297065139585,AU,1592950326
596,maidstone,51.27,0.52,66.9919999999999,62,97,1.0066213314244812,GB,1592950326
597,misratah,32.38,15.09,71.29400000000004,79,0,5.055476020042949,LY,1592950327
598,ninghai,29.29,121.42,80.99600000000004,99,100,1.2974230493915533,CN,1592950327
599,laharpur,27.72,80.9,85.98200000000003,65,55,10.043843951324266,IN,1592950327
600,zhangjiakou,40.81,114.88,66.59600000000006,69,8,4.854151753758053,CN,1592950327
601,kemise,10.72,39.87,75.79400000000004,36,67,4.764674302075877,ET,1592950327
602,majagual,8.54,-74.62,86.91800000000006,75,100,3.869899785254116,CO,1592950327
603,antofagasta,-23.65,-70.4,60.80000000000001,72,75,9.171438797423049,CL,1592950097
604,chernyshevskiy,63.01,112.47,56.839999999999975,72,70,7.829277022190408,RU,1592950327
605,atambua,-9.11,124.89,67.83800000000002,86,2,5.435755189692198,ID,1592950327
606,havelock,34.88,-76.9,82.99400000000009,78,68,12.996599856836077,US,1592950221
607,oswego,43.45,-76.15,84.19999999999999,51,1,6.9345025053686475,US,1592950328
608,quatre cocos,-20.21,57.76,71.59999999999997,83,20,3.3554044380816035,MU,1592950328
609,beisfjord,68.38,17.6,58.99999999999994,87,97,11.40837508947745,NO,1592950328
610,homestead,25.47,-80.48,89.59999999999997,66,20,9.171438797423049,US,1592949987
611,tupik,54.43,119.93,54.62600000000003,78,55,1.4987473156764497,RU,1592950328
612,yantal,56.85,105.25,62.58199999999994,66,72,1.5211166785969936,RU,1592950328
613,adwa,14.16,38.9,63.06800000000004,76,100,2.5724767358625624,ET,1592950328
614,maiduguri,11.85,13.16,91.43599999999998,26,7,2.796170365068003,NG,1592950328
615,hasaki,35.73,140.83,69.00799999999998,94,75,10.28990694345025,JP,1592950328
616,pertuis,43.69,5.5,71.59999999999997,77,4,1.2750536864710091,FR,1592950329
617,teguldet,57.31,88.17,56.462000000000046,91,22,4.093593414459557,RU,1592950329
618,miami lakes,25.91,-80.31,89.99600000000004,66,1,13.869005010737295,US,1592950329
619,chimbote,-9.09,-78.58,64.29199999999997,79,67,10.714924838940588,PE,1592950074
620,awbari,26.59,12.78,83.10200000000003,17,0,6.688439513242663,LY,1592950329
621,wad madani,14.4,33.52,94.69400000000002,26,100,6.688439513242663,SD,1592950329
622,zhangye,38.93,100.45,65.91199999999998,26,0,4.429133858267717,CN,1592950329
623,khanu woralaksaburi,16.06,99.86,82.99400000000009,71,100,4.250178954903364,TH,1592950329
624,tambo,-14.8,-73.92,42.83600000000001,61,16,7.762168933428777,PE,1592950329
625,corinto,37.94,22.96,73.99400000000009,61,29,5.9502505368647105,GR,1592950329
626,whitehorse,60.72,-135.05,58.99999999999994,30,75,4.6975662133142455,CA,1592950214
627,ziway,7.93,38.72,66.38000000000005,74,20,11.095204008589835,ET,1592950330
628,stromness,58.97,-3.3,55.00399999999996,100,100,3.0422333571939872,GB,1592950330
629,bandarbeyla,9.49,50.81,79.77199999999999,77,8,24.6957766642806,SO,1592950331
630,rawson,-43.3,-65.1,48.829999999999984,50,2,9.931997136721547,AR,1592950331
631,lagos,6.58,3.75,78.80000000000001,94,20,3.3554044380816035,NG,1592950096
632,jos,9.92,8.9,67.31599999999997,87,5,3.847530422333572,NG,1592950332
